name,province,district,county,type,lat,long,date
Colegio Rogelio Josué Ibarra,Bocas del Toro,Bocas del Toro,Bocas del Toro,FO,9.340654,-82.242499,12/7/2017
Escuela República de Nicaragua,Bocas del Toro,Bocas del Toro,Bocas del Toro,FO,9.338938,-82.242668,12/7/2017
Parque Simón Bolívar,Bocas del Toro,Bocas del Toro,Bocas del Toro,FO,9.340183,-82.240631,12/7/2017
Col. Sec. de Almirante,Bocas del Toro,Changuinola,Puerto Almirante,FO,9.299741,-82.413301,10/7/2017
Escuela Almirante,Bocas del Toro,Changuinola,Puerto Almirante,FO,9.292715,-82.394887,28/06/2017
Escuela Barriada Guaymi,Bocas del Toro,Changuinola,Puerto Almirante,FO,8.242676,-81.670066,30/06/2017
Escuela Berta López,Bocas del Toro,Changuinola,Puerto Almirante,FO,9.29509,-82.404895,29/06/2017
Escuela Miraflores,Bocas del Toro,Changuinola,Puerto Almirante,FO,9.305504,-82.437321,10/7/2017
Escuela Nuevo Paraíso,Bocas del Toro,Changuinola,Puerto Almirante,FO,9.283946,-82.410794,29/06/2017
BDA,Bocas del Toro,Changuinola,Changuinola,FO,9.437215,-82.519311,10/7/2017
Escuela Finca 41,Bocas del Toro,Changuinola,Changuinola,FO,9.471103,-82.513954,27/06/2017
Hospital Changuinola,Bocas del Toro,Changuinola,Changuinola,FO,9.449043,-82.516495,29/06/2017
Instituto Profesional y técnico de Bocas del Toro,Bocas del Toro,Changuinola,Changuinola,HFC,9.47141,-82.51574,26/06/2017
Palacio Municipal Changuinola,Bocas del Toro,Changuinola,Changuinola,FO,9.454582,-82.516882,26/06/2017
Parque de la escuela de changuinola,Bocas del Toro,Changuinola,Changuinola,FO,9.456052,-82.514567,11/7/2017
Policia de la Niñez y Adolescencia,Bocas del Toro,Changuinola,Changuinola,FO,9.477634,-82.508425,27/06/2017
Terminal de Transporte Sincotavecop,Bocas del Toro,Changuinola,Changuinola,FO,9.449858,-82.518679,29/06/2017
C.E.B.G. Finca 32,Bocas del Toro,Changuinola,Changuinola,HFC,9.427024,-82.555804,27/06/2017
C.E.B.G. FINCA 62,Bocas del Toro,Changuinola,Changuinola,PTP,9.437268,-82.497184,26/06/2017
Escuela Finca 43,Bocas del Toro,Changuinola,Changuinola,FO,9.474736,-82.499969,26/06/2017
Escuela Finca 44,Bocas del Toro,Changuinola,Changuinola,FO,9.474577,-82.482878,26/06/2017
Escuela Finca 64,Bocas del Toro,Changuinola,Changuinola,FO,9.458968,-82.496082,2/8/2017
Escuela Finca 67,Bocas del Toro,Changuinola,Changuinola,FO,9.437948,-82.497599,2/8/2017
C.E.B.G. Finca 04,Bocas del Toro,Changuinola,El Empalme,FO,9.405815,-82.50158,27/06/2017
Cuartel de Bomberos del Empalme,Bocas del Toro,Changuinola,El Empalme,FO,9.420845,-82.52088,27/06/2017
Escuela El Empalme,Bocas del Toro,Changuinola,El Empalme,FO,9.420079,-82.520909,29/06/2017
Escuela El Silencio,Bocas del Toro,Changuinola,El Empalme,FO,9.388555,-82.531266,27/06/2017
Escuela Finca 3,Bocas del Toro,Changuinola,El Empalme,Satelital,9.424643,-82.471711,19/12/2017
I.P.T. EL SILENCIO,Bocas del Toro,Changuinola,El Empalme,FO,9.375363,-82.528324,27/06/2017
Universidad de Panama El Empalme,Bocas del Toro,Changuinola,El Empalme,FO,9.415669,-82.526246,11/7/2017
Universidad de Panama- Sede Agropecuaria,Bocas del Toro,Changuinola,El Empalme,FO,9.495357,-82.586637,27/06/2017
UTP El Empalme,Bocas del Toro,Changuinola,El Empalme,FO,9.421975,-82.523321,27/06/2017
C.E.B.G. Guabito,Bocas del Toro,Changuinola,Guabito,FO,9.492023,-82.611638,11/7/2017
Colegio Secundario de Guabito,Bocas del Toro,Changuinola,Guabito,FO,9.488559,-82.60768,11/7/2017
Escuela Finca 41 Guabito,Bocas del Toro,Changuinola,Guabito,FO,9.491225,-82.624136,11/7/2017
Escuela Finca 54,Bocas del Toro,Changuinola,Guabito,FO,9.495357,-82.586637,11/7/2017
Escuela Finca Débora,Bocas del Toro,Changuinola,Guabito,FO,9.514801,-82.594971,3/8/2017
Escuela Puente blanco,Bocas del Toro,Changuinola,Guabito,PTP,9.481746,-82.595249,28/06/2017
Escuela San San Medio (Anexa),Bocas del Toro,Changuinola,Guabito,FO,9.464957,-82.549523,28/06/2017
Policlínica de Guabito CSS,Bocas del Toro,Changuinola,Guabito,FO,9.49632,-82.610203,28/06/2017
C.E.B.G. Dionisia G. de Ayarza,Bocas del Toro,Chiriqui Grande,Chiriqui Grande,FO,8.945522,-82.115149,3/8/2017
I.P.T. Chiriqui Grande,Bocas del Toro,Chiriqui Grande,Chiriqui Grande,FO,8.918024,-82.184955,3/8/2017
Municipio Chiriqui Grande (Cabecera),Bocas del Toro,Chiriqui Grande,Chiriqui Grande,FO,8.948784,-82.116083,3/8/2017
C.E.B.G. PUNTA PEÑA,Bocas del Toro,Chiriqui Grande,Punta Peña,FO,8.913516,-82.186711,28/06/2017
Escuela Cañazas,Bocas del Toro,Chiriqui Grande,Punta Peña,FO,8.807906,-82.184109,30/06/2017
Esc. Alanje,Chiriqui,Alanje,Santiago de Alanje,HFC,8.495887,-82.80728,1/6/2017
Municipio de Alanje,Chiriqui,Alanje,Santiago de Alanje,FO,8.40067,-82.558188,13/06/2017
Parque Central Alanje,Chiriqui,Alanje,Santiago de Alanje,FO,8.400826,-82.557997,13/06/2017
C.E.B.G. Divalá,Chiriqui,Alanje,Divalá,FO,8.411548,-82.716166,26/07/2017
Policlínica de la CSS de Divala,Chiriqui,Alanje,Divalá,FO,8.417235,-82.713975,27/07/2017
Esc. Guarumal,Chiriqui,Alanje,Guarumal,FO,8.35175,-82.530526,29/11/2017
Esc. La Esperanza,Chiriqui,Baru,Baco,FO,8.406897,-82.790057,30/05/2017
Esc. San Valentín,Chiriqui,Baru,Baco,FO,8.365272,-82.783435,30/05/2017
Centro de Educ. Media de Progreso,Chiriqui,Baru,Progreso,PTP,8.451565,-82.834551,25/07/2017
Esc. Chuchupate,Chiriqui,Baru,Progreso,PTP,8.347334,-82.801157,25/07/2017
Biblioteca Pública Generosa Valdez de Diaz,Chiriqui,Baru,Puerto Tomás Armuelles,FO,8.277919,-82.864167,4/5/2017
Bomberos Puerto Armuelles,Chiriqui,Baru,Puerto Tomás Armuelles,FO,8.271352,-82.863631,4/5/2017
Esc. Los Ángeles,Chiriqui,Baru,Puerto Tomás Armuelles,FO,8.272968,-82.861328,24/05/2017
Esc. Márgenes de Corotú,Chiriqui,Baru,Puerto Tomás Armuelles,FO,8.272843,-82.894507,24/05/2017
Esc. Sec. de Puerto Armuelles,Chiriqui,Baru,Puerto Tomás Armuelles,FO,8.284577,-82.863122,4/5/2017
Esc. Tomás Armuelles,Chiriqui,Baru,Puerto Tomás Armuelles,PTP,8.270955,-82.859721,24/05/2017
Municipio Puerto Armuelles,Chiriqui,Baru,Puerto Tomás Armuelles,FO,8.273669,-82.860183,4/5/2017
Parque Central Puerto Armuelles,Chiriqui,Baru,Puerto Tomás Armuelles,FO,8.271562,-82.86013,4/5/2017
Esc. Agua Buena,Chiriqui,Baru,Puerto Tomás Armuelles,FO,8.302843,-82.872246,4/5/2017
Esc. El Palmar,Chiriqui,Baru,Puerto Tomás Armuelles,FO,8.308957,-82.840718,25/07/2017
Esc. Flor de Lima,Chiriqui,Baru,Puerto Tomás Armuelles,PTP,8.294459,-82.857206,24/05/2017
Esc. Aguacatón,Chiriqui,Baru,Rodolfo Aguilar Delgado,FO,8.347584,-82.801082,30/05/2017
Esc. Balsa,Chiriqui,Baru,Rodolfo Aguilar Delgado,FO,8.428309,-82.895269,23/05/2017
Esc. Burica Centro,Chiriqui,Baru,Rodolfo Aguilar Delgado,PTP,8.391051,-82.903279,25/07/2017
Esc. Corozo,Chiriqui,Baru,Rodolfo Aguilar Delgado,FO,8.415213,-82.931435,4/8/2017
Esc. Finca Blanco,Chiriqui,Baru,Rodolfo Aguilar Delgado,FO,8.384487,-82.875077,5/5/2017
Esc. Finca Bongo,Chiriqui,Baru,Rodolfo Aguilar Delgado,FO,8.406384,-82.904103,30/05/2017
Esc. Finca Zapatero,Chiriqui,Baru,Rodolfo Aguilar Delgado,FO,8.397342,-82.891426,30/05/2017
Esc. Guayacán,Chiriqui,Baru,Rodolfo Aguilar Delgado,FO,8.349596,-82.833844,30/05/2017
Esc. Higuerón,Chiriqui,Baru,Rodolfo Aguilar Delgado,PTP,8.407189,-82.888167,25/07/2017
Esc. La Victoria,Chiriqui,Baru,Rodolfo Aguilar Delgado,FO,8.400361,-82.950249,23/05/2017
Esc. Manaca Civil,Chiriqui,Baru,Rodolfo Aguilar Delgado,FO,8.325881,-82.817967,30/05/2017
Esc. Manaca Norte,Chiriqui,Baru,Rodolfo Aguilar Delgado,FO,8.339238,-82.806693,30/05/2017
Esc. San Antonio.,Chiriqui,Baru,Rodolfo Aguilar Delgado,FO,8.371362,-82.887194,25/07/2017
Esc. Sec. Finca Blanco,Chiriqui,Baru,Rodolfo Aguilar Delgado,FO,8.383139,-82.87648,5/5/2017
I.P.T. Baru,Chiriqui,Baru,Rodolfo Aguilar Delgado,FO,8.33925,-82.806915,30/05/2017
P.C. Corozo,Chiriqui,Baru,Rodolfo Aguilar Delgado,FO,8.415374,-82.930786,23/05/2017
Esc. La Meseta.,Chiriqui,Boqueron,Boqueron,FO,8.552305,-82.592471,20/06/2017
Parque Central Boqueron,Chiriqui,Boqueron,Boqueron,FO,8.507088,-82.570997,14/06/2017
Esc. La Guinea,Chiriqui,Boqueron,Pedregal,FO,8.498034,-82.592449,14/06/2017
Esc. Alto Boquete,Chiriqui,Boquete,Alto Boquete,FO,8.732382,-82.434166,29/05/2017
Esc. Sec. Benigno T. Argote,Chiriqui,Boquete,Alto Boquete,HFC,8.745296,-82.432561,26/05/2017
Escuela Palo Alto (primaria),Chiriqui,Boquete,Bajo Boquete,HFC,8.796749,-82.428304,26/05/2017
Municipio Bajo Boquete,Chiriqui,Boquete,Bajo Boquete,HFC,8.776093,-82.433406,26/05/2017
Esc. Volcancito,Chiriqui,Boquete,Bajo Boquete,FO,8.769249,-82.445526,29/05/2017
Centro de Salud AserRio de Gariche,Chiriqui,Bugaba,AserRio de Gariché,FO,8.489254,-82.789992,13/06/2017
Esc. Aserrío,Chiriqui,Bugaba,Aserrío de Gariché,FO,8.489039,-82.787958,26/07/2017
Esc. El Exquisito,Chiriqui,Bugaba,Aserrío de Gariché,FO,8.562867,-82.740414,2/8/2017
Esc. Gariche,Chiriqui,Bugaba,Aserrío de Gariché,FO,8.487027,-82.779693,14/07/2017
Esc. Jacú,Chiriqui,Bugaba,Aserrío de Gariché,FO,8.482222,-82.815482,1/6/2017
Esc. La Celmira,Chiriqui,Bugaba,Aserrío de Gariché,FO,8.54462,-82.021127,14/07/2017
Esc. Portón,Chiriqui,Bugaba,Aserrío de Gariché,FO,8.566117,-82.786797,4/8/2017
Esc. San Isidro,Chiriqui,Bugaba,Aserrío de Gariché,HFC,8.53338,-82.830779,18/05/2017
Esc. San Pedro,Chiriqui,Bugaba,Aserrío de Gariché,FO,8.56272,-82.799918,14/07/2017
Parque AserRio de Gariche,Chiriqui,Bugaba,AserRio de Gariché,FO,8.483333,-82.8,25/07/2017
Esc. Brisas del Río,Chiriqui,Bugaba,Bugaba,HFC,8.496364,-82.636814,25/05/2017
Esc. Mata de Bugaba,Chiriqui,Bugaba,Bugaba,HFC,8.502585,-82.614279,24/05/2017
Municipio de Bugaba,Chiriqui,Bugaba,Bugaba,FO,8.54465,-82.021127,18/05/2017
Esc. Guadalupe/Fernando Eleta Almarán,Chiriqui,Bugaba,,FO,8.869177,-82.567344,31/05/2017
Esc. Gómez,Chiriqui,Bugaba,Gómez,FO,8.562305,-82.740249,20/06/2017
Esc. San Miguel de Exquisito,Chiriqui,Bugaba,Gómez,FO,8.550083,-82.757749,14/07/2017
Biblioteca Catolica,Chiriqui,Bugaba,La Concepción,FO,8.516109,-82.623139,18/05/2017
Biblioteca Pública La Concepción CENTRO ACP,Chiriqui,Bugaba,La Concepción,FO,8.517397,-82.618121,18/05/2017
Centro Cristiano Bugaba,Chiriqui,Bugaba,La Concepción,FO,8.518749,-82.621191,24/05/2017
Esc. Cuesta de Piedra,Chiriqui,Bugaba,La Concepción,FO,8.677318,-82.624258,27/07/2017
Esc. de Solano,Chiriqui,Bugaba,La Concepción,FO,8.5158,-82.611886,24/05/2017
Esc. San Vicente,Chiriqui,Bugaba,La Concepción,FO,8.592583,-82.636638,27/07/2017
Escuela Belen,Chiriqui,Bugaba,La Concepción,FO,8.515317,-82.628042,24/05/2017
Escuela Daniel Octavio Crespo,Chiriqui,Bugaba,La Concepción,FO,8.520229,-82.627342,18/05/2017
I.P.T. Solano,Chiriqui,Bugaba,La Concepción,HFC,8.520659,-82.613268,25/05/2017
Parque Central Bugaba,Chiriqui,Bugaba,La Concepción,FO,8.515958,-82.6197,1/12/2017
Parque Infantil (Orillas de la interamericana),Chiriqui,Bugaba,La Concepción,FO,8.514089,-82.621595,13/06/2017
Primaria Justo Abel Castillo,Chiriqui,Bugaba,La Concepción,FO,8.52113,-82.618429,1/6/2017
Centro de Salud La Estrella,Chiriqui,Bugaba,La Estrella,FO,8.517945,-82.671028,2/8/2017
Esc. La Estrella,Chiriqui,Bugaba,La Estrella,FO,8.519726,-82.672056,28/09/2017
ESC. LA TRANCA,Chiriqui,Bugaba,La Estrella,FO,8.468438,-82.675352,1/6/2017
Esc. Sioguí Abajo Nº 2,Chiriqui,Bugaba,La Estrella,FO,8.547171,-82.631969,2/8/2017
Esc. San Andrés,Chiriqui,Bugaba,San Andrés,FO,8.604498,-82.728223,26/07/2017
Esc. San Francisco,Chiriqui,Bugaba,San Andrés,FO,8.636126,-82.72981,4/8/2017
P.C. San Andrés,Chiriqui,Bugaba,San Andrés,FO,8.606706,-82.73562,26/07/2017
Escuela Santa Marta,Chiriqui,Bugaba,Santa Marta,FO,8.516755,-82.699808,24/05/2017
Esc. Manchuila,Chiriqui,Bugaba,Santo Domingo,FO,8.477384,-82.712064,24/05/2017
P.C. Santo Domingo,Chiriqui,Bugaba,Santo Domingo,FO,8.513502,-82.712081,24/05/2017
Centro de Salud Sortova,Chiriqui,Bugaba,Sortová,HFC,8.532252,-82.606676,25/05/2017
C.E.B.G. de Volcán,Chiriqui,Bugaba,,FO,8.775136,-82.639093,31/05/2017
Esc. El Bijao,Chiriqui,Bugaba,Volcán,FO,8.709527,-82.624415,27/07/2017
Parque Plaza Volcán,Chiriqui,Bugaba,Volcán,FO,8.777953,-82.643329,1/6/2017
Policía Nacional,Chiriqui,Bugaba,,FO,8.776175,-82.640403,31/05/2017
Esc. Chiriqui,Chiriqui,David,Chiriqui,FO,8.397895,-82.324775,25/05/2017
Esc. Chorcha Abajo,Chiriqui,David,Chiriqui,Satelital,8.370429,-82.279748,16/10/2017
Esc. El Veladero.,Chiriqui,David,Chiriqui,FO,8.432535,-82.287988,25/05/2017
Esc. La Pita,Chiriqui,David,Chiriqui,FO,8.399806,-82.25136,25/05/2017
Esc. Cochea Arriba,Chiriqui,David,Cochea,Satelital,8.542861,-82.378026,16/10/2017
Aldeas Infantiles SOS,Chiriqui,David,San José de David,FO,8.408425,-82.43341,23/05/2017
Ave. Central David,Chiriqui,David,San José de David,PMP,8.428221,-82.424817,29/05/2017
Biblioteca Pública Santiago Anguizola CENTRO ACP,Chiriqui,David,San José de David,PTP,8.428668,-82.430882,15/05/2017
Centro de Salud San Mateo,Chiriqui,David,San José de David,PTP,8.431556,-82.43849,17/05/2017
Elisa Chiari,Chiriqui,David,San José de David,FO,8.420344,-82.421251,20/06/2017
Esc. Barriada Victoriano Lorenzo,Chiriqui,David,San José de David,PTP,8.41473,-82.436055,16/05/2017
Esc. de Doleguita,Chiriqui,David,San José de David,FO,8.439524,-82.427605,16/05/2017
Esc. de Lassonde,Chiriqui,David,San José de David,PTP,8.424069,-82.442303,16/05/2017
Esc. de San Mateo,Chiriqui,David,San José de David,FO,8.431125,-82.455375,17/05/2017
Esc. El Varital,Chiriqui,David,San José de David,PTP,8.432905,-82.419134,18/05/2017
Esc. Maria Olimpia de Obaldía,Chiriqui,David,San José de David,PTP,8.393521,-82.426826,16/05/2017
Esc. Medalla Milagrosa,Chiriqui,David,San José de David,PTP,8.42477,-82.421048,17/05/2017
Esc. Nuevo Vedado,Chiriqui,David,San José de David,FO,8.419499,-82.427458,16/05/2017
Esc. Nvo. Amanecer,Chiriqui,David,San José de David,FO,8.418501,-82.446292,22/05/2017
Escuela Antonio José de Sucre,Chiriqui,David,San José de David,PTP,8.426691,-82.429717,16/05/2017
Escuela de los Abanicos,Chiriqui,David,San José de David,PTP,8.399773,-82.43871,16/05/2017
Escuela de San Cristobal,Chiriqui,David,San José de David,PTP,8.416745,-82.44119,16/05/2017
Escuela Loma Colorada,Chiriqui,David,San José de David,FO,8.410312,-82.417306,25/05/2017
Francisco Morazan,Chiriqui,David,San José de David,FO,8.425626,-82.417588,29/11/2017
I.P.T. Arnulfo Arias M.,Chiriqui,David,San José de David,PTP,8.420188,-82.443981,15/05/2017
I.P.T. David,Chiriqui,David,San José de David,FO,8.437085,-82.41841,25/05/2017
INADEH David,Chiriqui,David,San José de David,PTP,8.420631,-82.420781,16/05/2017
INADEH-Area de Talleres,Chiriqui,David,San José de David,FO,8.422158,-82.421191,16/05/2017
José Maria Roy,Chiriqui,David,San José de David,PTP,8.42125,-82.43392,17/05/2017
Mercado Público Municipal David,Chiriqui,David,San José de David,FO,8.427099,-82.435524,22/05/2017
Municipio de David,Chiriqui,David,San José de David,PTP,8.427903,-82.429924,18/05/2017
Parque Cervantes de David,Chiriqui,David,San José de David,PTP,8.427584,-82.425166,17/05/2017
Paseo de la Cultura,Chiriqui,David,San José de David,PTP,8.42909,-82.431151,18/05/2017
Republica de Francia,Chiriqui,David,San José de David,FO,8.432817,-82.430653,17/05/2017
UNACHI ( Universidad Autonoma de Chiriqui),Chiriqui,David,San José de David,PMP,8.433657,-82.443007,25/05/2017
Valle Alto del Rio,Chiriqui,David,San José de David,FO,8.420158,-82.418596,1/6/2017
Esc. El Quiteño,Chiriqui,David,Las Lomas,FO,8.474155,-82.396315,19/05/2017
Esc. El Valle,Chiriqui,David,Las Lomas,FO,8.428181,-82.336253,23/05/2017
Esc. LLano Grande Abajo,Chiriqui,David,Las Lomas,FO,8.431088,-82.386255,20/05/2017
Esc. Mata del Nance,Chiriqui,David,Las Lomas,FO,8.452597,-82.400888,19/05/2017
Esc. San José,Chiriqui,David,Las Lomas,FO,8.423333,-82.394638,20/05/2017
P.C. Victoriano Lorenzo,Chiriqui,David,Las Lomas,FO,8.426225,-82.392248,20/05/2017
Parque Llano Arriba,Chiriqui,David,Las Lomas,FO,8.440872,-82.393468,19/05/2017
ESC. AURA ROSA AGUILAR,Chiriqui,David,San Carlos,PTP,8.521911,-82.505616,20/06/2017
Hospital Materno Infantil,Chiriqui,David,San Carlos,PTP,8.431192,-82.455312,17/05/2017
Hospital Regional de Chiriqui,Chiriqui,David,San Carlos,FO,8.430492,-82.452575,25/05/2017
Universidad Tecnológica San Carlos,Chiriqui,David,San Carlos,PTP,8.423183,-82.442544,15/05/2017
Esc. Aguacatal,Chiriqui,David,San Pablo Viejo,HFC,8.459003,-82,22/05/2017
Esc. Montilla,Chiriqui,David,San Pablo Viejo,HFC,8.468168,-82.47969,22/05/2017
Esc. San Juan del David,Chiriqui,David,San Pablo Viejo,PTP,8.481947,-82.484804,15/06/2017
Esc. San Pablo Viejo Arriba,Chiriqui,David,San Pablo Viejo,FO,8.477561,-82.712152,28/07/2017
CEBG Los Algarrobos,Chiriqui,Dolega,Los Algarrobos,PTP,8.51728,-82.619337,1/8/2017
Esc. El Flor,Chiriqui,Dolega,Los Algarrobos,HFC,8.575638,-82.443582,29/05/2017
Municipio de Dolega,Chiriqui,Dolega,Los Algarrobos,HFC,8.566958,-82.416614,26/05/2017
Esc. Las Cañas.,Chiriqui,Dolega,Los Algarrobos,FO,8.56458,-82.44958,1/8/2017
Esc. Los Bejucos,Chiriqui,Dolega,Los Algarrobos,Satelital,8.585568,-82.462704,16/10/2017
Centro de Salud Los Anastacios,Chiriqui,Dolega,Los Anastacios,FO,8.532174,-82.420761,2/6/2017
Esc. Rincón Largo,Chiriqui,Dolega,Los Anastacios,FO,8.529598,-82.409978,16/06/2017
Escuela Los Anastacios,Chiriqui,Dolega,Los Anastacios,FO,8.530478,-82.417758,28/07/2017
Escuela Primaria Santa Rosa,Chiriqui,Dolega,Los Anastacios,HFC,8.532996,-82.428818,25/05/2017
Parque 27 de Noviembre,Chiriqui,Dolega,Los Anastacios,FO,8.532711,-82.419056,1/8/2017
Parque Residencial Altamar,Chiriqui,Dolega,Los Anastacios,FO,8.520696,-82.424134,2/6/2017
Plaza Los Algarrobos,Chiriqui,Dolega,Los Anastacios,HFC,8.499541,-82.425671,1/8/2017
Esc. Higuerón.,Chiriqui,Gualaca,Gualaca,FO,8.498969,-82.285015,2/6/2017
Municipio Gualaca,Chiriqui,Gualaca,Gualaca,FO,8.532391,-82.299513,2/6/2017
Parque Gualaca,Chiriqui,Gualaca,Gualaca,FO,8.533211,-82.299684,2/6/2017
Esc. Secundaria Jesús Maria Pla,Chiriqui,Gualaca,Gualaca,FO,8.52287,-82.30013,2/6/2017
Esc. Antonio Anguizola,Chiriqui,Remedios,Remedios,FO,8.228073,-81.832277,24/07/2017
Municipio de Remedios,Chiriqui,Remedios,Remedios,FO,8.228152,-81.832021,24/07/2017
P.C. Arturo D. Motta,Chiriqui,Remedios,Remedios,FO,8.224806,-81.825526,24/07/2017
Esc. Alto de Quiel,Chiriqui,Renacimiento,Cañas Gordas,PTP,8.730638,-82.888304,27/07/2017
Esc. Bajos de Chiriqui,Chiriqui,Renacimiento,Cañas Gordas,Satelital,8.730638,-82.851915,27/09/2017
Esc. Qda. Las Vueltas,Chiriqui,Renacimiento,Cañas Gordas,Satelital,8.67036,-82.839971,27/09/2017
Esc. Monte Lirio,Chiriqui,Renacimiento,Monte Lirio,Satelital,8.793971,-82.823026,12/12/2017
Esc. San Antonio Abajo,Chiriqui,Renacimiento,Monte Lirio,PTP,8.79286,-82.788304,31/05/2017
Esc. Sta. Clara Abajo,Chiriqui,Renacimiento,Monte Lirio,PTP,8.82161,-82.856154,31/05/2017
C.E.B.G. Caizan Fuertes Caminos,Chiriqui,Renacimiento,Plaza de Caisán,Satelital,8.743138,-82.819971,28/09/2017
Esc. Caisán Arriba,Chiriqui,Renacimiento,Plaza de Caisán,PTP,8.768908,-82.787888,31/05/2017
Esc. Altamira,Chiriqui,Renacimiento,Río Sereno,Satelital,8.793066,-82.861959,4/12/2017
Esc. Piedra Candela,Chiriqui,Renacimiento,Río Sereno,PTP,8.829116,-82.860619,27/07/2017
Esc. Río Sereno,Chiriqui,Renacimiento,Río Sereno,FO,8.820082,-82.860526,22/06/2017
Municipo de Renacimiento,Chiriqui,Renacimiento,Rio Sereno,FO,8.816667,-82.866667,22/06/2017
Esc. Miraflores.,Chiriqui,Renacimiento,Río Sereno,FO,8.844119,-82.830207,22/06/2017
Parque Rio Sereno,Chiriqui,Renacimiento,Rio Sereno,FO,8.820221,-82.861792,31/01/2018
Esc. Palmarito,Chiriqui,Renacimiento,Santa Clara,PTP,8.801563,-82.775094,31/05/2017
Esc. Sta. Clara,Chiriqui,Renacimiento,Santa Clara,PTP,8.696359,-82.702401,31/05/2017
Esc. Las Lajas,Chiriqui,San Felix,Las Lajas,FO,8.253103,-81.870567,16/06/2017
Esc. Sec. de Las Lajas,Chiriqui,San Felix,Las Lajas,FO,8.244351,-81.869302,24/07/2017
Municipio San Felix,Chiriqui,San Felix,Las Lajas,FO,8.244194,-81.86967,24/07/2017
Esc. San Felix,Chiriqui,San Felix,San Felix,FO,8.296704,-81.869099,16/06/2017
Hospital MINSA,Chiriqui,San Felix,San Felix,FO,8.284919,-81.873867,24/07/2017
Esc. Boca del Monte,Chiriqui,San Lorenzo,Boca del Monte,FO,8.355827,-82.115828,21/06/2017
Esc. Las Vueltas,Chiriqui,San Lorenzo,Boca del Monte,FO,8.355827,-82.115828,23/06/2017
Esc. Sara V. Campbell,Chiriqui,San Lorenzo,Horconcitos,FO,8.31313,-82.154298,23/06/2017
Municipio San Lorenzo,Chiriqui,San Lorenzo,Horconcitos,FO,8.315107,-82.150561,23/06/2017
Esc. Llano Grande,Chiriqui,San Lorenzo,San Lorenzo,Satelital,8.34425,-82.054415,23/10/2017
Esc. San Lorenzo,Chiriqui,San Lorenzo,San Lorenzo,FO,8.307244,-82.102102,15/06/2017
I.P.T. Abel Tapiero Miranda,Chiriqui,San Lorenzo,San Lorenzo,FO,8.30957,-82.105973,15/06/2017
Esc. Comun,Chiriqui,Tole,Tole,FO,8.207862,-81.682471,3/8/2017
Esc. Santiago Bolaños,Chiriqui,Tole,Tole,FO,8.242676,-81.670066,24/07/2017
Municipio Tole,Chiriqui,Tole,Tole,FO,8.243426,-81.672526,24/07/2017
Municipio Soloy,Comarca Ngobe Bugle,Besiko,Soloy,Satelital,8.548889,-81.09,24/11/2017
Municipio Kusapin,Comarca Ngobe Bugle,Kusapin,Kusapin,Satelital,9.005914,-80.244971,28/12/2017
COL. Río Chiriqui,Comarca Ngobe Bugle,Kusapin,Río Chiriqui,Satelital,8.840743,-81.565081,14/12/2017
Municipio Hato Pilón,Comarca Ngobe Bugle,Mirono,Hato Pilón,Satelital,8.381389,-81.828056,19/12/2017
C.E.B.G. Alto Caballero,Comarca Ngobe Bugle,Muna,Alto Caballero,PTP,8.294748,-81.673872,12/9/2017
C.E.B.G. Cerro Puerco,Comarca Ngobe Bugle,Muna,Cerro Puerco,Satelital,8.308372,-81.755565,16/10/2017
I.P.T.. Chichica,Comarca Ngobe Bugle,Muna,Chichica,Satelital,8.136722,-81.375875,22/09/2017
Escuela Llano Macano,Comarca Ngobe Bugle,Muna,Nibra,Satelital,8.282306,-81.548304,13/12/2017
I.P.T. Sitio Prado,Comarca Ngobe Bugle,Muna,Sitio Prado,Satelital,8.373256,-81.579741,24/11/2017
C.E.B.G. Cerro Iglesias,Comarca Ngobe Bugle,Nole Duima,Cerro Iglesias,Satelital,8.233076,-81.660953,26/09/2017
Municipio Nole Duima,Comarca Ngobe Bugle,Nole Duima,Cerro Iglesias,Satelital,8.307183,-81.794696,26/09/2017
C.E.B.G. Petita Santos,Comarca Ngobe Bugle,Nole Duima,Susama,Satelital,8.218594,-81.713463,26/09/2017
Colegio El Peñón,Comarca Ngobe Bugle,Ñurum,Agua de Salud,Satelital,8.452861,-81.418582,12/12/2017
Municipio Buenos Aires,Comarca Ngobe Bugle,Ñurum,Buenos Aires,Satelital,8.412715,-81.478875,23/01/2018
Centro Educativo Cerro Pelado,Comarca Ngobe Bugle,Ñurum,Cerro Pelado,Satelital,8.162862,-81.54386,12/12/2017
I.P.T.A. Hermana Maria Mercedes Pérez,Comarca Ngobe Bugle,Ñurum,El Bale,Satelital,8.347306,-81.370249,12/12/2017
Municipio Atalaya (Cabecera),Veraguas,Atalaya,Jesus Nazareno de Atalaya,HFC,8.043254,-80.925718,26/06/2017
PC de Atalaya,Veraguas,Atalaya,Jesus Nazareno de Atalaya,FO,8.05,-80.916667,28/06/2017
Escuela Eligio Tejada Ortega,Veraguas,Calobre,Calobre,FO,8.318695,-80.84386,2/8/2017
C.E.B.G. San Miguel,Veraguas,Calobre,Calobre,FO,8.263093,-80.855003,11/7/2017
I.P.T. César A. Clavel Méndez,Veraguas,Cañazas,San Francisco Javier de Cañazas,PTP,8.312306,-81.213582,29/06/2017
Escuela San Pablo (ESC. JOSE David JIMENEZ),Veraguas,La Mesa,Bisvalles,FO,8.198418,-81.249138,12/7/2017
Escuela Zodelda Franco,Veraguas,La Mesa,Bisvalles,FO,8.203418,-81.195249,5/10/2017
Municipio La Mesa,Veraguas,La Mesa,La Mesa,FO,8.148655,-81.1812,3/8/2017
C.E.B.G. Animas de Boro,Veraguas,La Mesa,San Bartolo,FO,8.214088,-81.32637,12/7/2017
C.E.B.G. Mercedes A. de Tristán,Veraguas,La Mesa,San Bartolo,FO,8.212397,-81.277072,12/7/2017
Escuela El Marañón,Veraguas,La Mesa,San Bartolo,FO,8.227862,-81,14/07/2017
Escuela El Rincón,Veraguas,Las Palmas,El Rincón,FO,8.187306,-81.429415,6/9/2017
I.P.T. El Rincón,Veraguas,Las Palmas,El Rincón,FO,8.187306,-81.429415,13/07/2017
Escuela José A. Ruiz,Veraguas,Las Palmas,Las Palmas,FO,8.139075,-81.457168,13/07/2017
I.P.T. Las Palmas,Veraguas,Las Palmas,Las Palmas,FO,8.202125,-81.493034,6/9/2017
Escuela Torio,Veraguas,Mariato,Mariato,Satelital,7.547309,-80.94886,16/10/2017
C.E.B.G. Loma de Quebro,Veraguas,Mariato,Quebro,Satelital,7.438698,-80.887471,16/10/2017
Escuela Quebro,Veraguas,Mariato,Quebro,Satelital,7.427256,-80.835393,16/10/2017
Escuela Adolfo José Fábrega,Veraguas,Montijo,Montijo,HFC,7.989475,-81.054838,28/06/2017
Escuela El Pilón,Veraguas,Montijo,Montijo,FO,7.955363,-81.074415,28/06/2017
C.E.B.G. Rogelio E. Nurse,Veraguas,San Francisco,Remance,Satelital,8.250084,-81.083304,14/12/2017
C.E.B.G. Pedro Arrocha Graell,Veraguas,San Francisco,San Francisco de la Montaña,HFC,8.248417,-80.972749,28/06/2017
C.E.B.G. San José Nº 2,Veraguas,San Francisco,San José,FO,8.35175,-81.040526,8/9/2017
Belisario Villar,Veraguas,Santiago,Canto del Llano,FO,8.122331,-80.968633,15/06/2017
CEBG Rubén Darío - Canto del Llano,Veraguas,Santiago,Canto del Llano,FO,8.122083,-80.964997,14/06/2017
Centro de Salud del Canto del Llano,Veraguas,Santiago,Canto del Llano,FO,8.118456,-80.965583,14/06/2017
E.S.N.O. de Veraguas,Veraguas,Santiago,Canto del Llano,FO,8.113136,-80.966167,20/06/2017
I.P.T. de Veraguas,Veraguas,Santiago,Canto del Llano,FO,8.11145,-80.970667,11/7/2017
INADEH Canto del Llano,Veraguas,Santiago,Canto del Llano,Radio,8.116519,-80.963901,13/06/2017
MIDES Canto del Llano,Veraguas,Santiago,Canto del Llano,PTP,8.11729,-80.965892,13/06/2017
Universidad Canto del Llano,Veraguas,Santiago,Canto del Llano,PMP,8.113325,-80.968556,15/06/2017
Villa Universitaria Canto del Llano,Veraguas,Santiago,Canto del Llano,PMP,8.115533,-80.967119,13/06/2017
Escuela José de Los S. Gutiérrez,Veraguas,Santiago,Carlos Santana Ávila,FO,8.083418,-80.889971,29/06/2017
Escuela Juana B. Macías,Veraguas,Santiago,Carlos Santana Ávila,FO,8.094529,-80.818582,10/7/2017
Escuela República de Oliver Alemán,Veraguas,Santiago,Carlos Santana Ávila,FO,8.081473,-80.852749,10/7/2017
P.C. La Inmaculda Concepción,Veraguas,Santiago,Carlos Santana Ávila,PTP,8.127029,-80.857749,15/06/2017
C.E.B.G. Martín Grande,Veraguas,Santiago,Edwin Fábrega,FO,8.07064,-81.005249,26/09/2017
Escuela Quebrada. Honda,Veraguas,Santiago,Edwin Fábrega,FO,8.061474,-81.031082,26/09/2017
P.C. Margarito Mojica,Veraguas,Santiago,La Colorada,HFC,8.039978,-80.978327,21/06/2017
Colegio Secundario La Peña,Veraguas,Santiago,La Peña,FO,8.125509,-81.020139,27/06/2017
Escuela Agustín Pérez Colmenares,Veraguas,Santiago,La Peña,FO,8.131109,-81.027554,4/9/2017
Escuela La Coloradita de la Peña,Veraguas,Santiago,La Peña,FO,8.17314,-81.025804,3/8/2017
Escuela Los Algarrobos,Veraguas,Santiago,La Peña,FO,8,-81,27/06/2017
C.E.B.G. Cañazas Abajo,Veraguas,Santiago,La Raya de Santa Maria,FO,8.142029,-80.712471,3/10/2017
Escuela La Raya de Sta. Maria,Veraguas,Santiago,La Raya de Santa Maria,FO,8.169251,-80.816638,11/7/2017
ESC. SAN PEDRO DEL ESPINO,Veraguas,Santiago,Los Algarrobos,FO,8.138973,-81.083582,3/8/2017
Escuela El Embalsadero,Veraguas,Santiago,Los Algarrobos,HFC,8.102307,-81.05136,16/06/2017
Escuela El Llanillo,Veraguas,Santiago,Los Algarrobos,FO,8.070085,-81.07636,28/06/2017
Escuela La Corocita.,Veraguas,Santiago,Los Algarrobos,FO,8.076473,-81.04636,3/8/2017
Escuela Pacora,Veraguas,Santiago,Los Algarrobos,FO,8.102029,-81.079415,4/9/2017
Escuela Guayaquil,Veraguas,Santiago,San Martín de Porres,HFC,8.108973,-80.923026,15/06/2017
Escuela Punta Delgadita,Veraguas,Santiago,San Martín de Porres,FO,8.109529,-80.943026,19/06/2017
Escuela Rómulo Arrocha,Veraguas,Santiago,San Martín de Porres,FO,8.117307,-80.957193,4/9/2017
Escuela San Martín de Porres,Veraguas,Santiago,San Martín de Porres,FO,8.112862,-80.96386,20/06/2017
Instituto Urracá,Veraguas,Santiago,San Martín de Porres,FO,8.11314,-80.966915,20/06/2017
Anexa El Canada,Veraguas,Santiago,Santiago Apóstol,FO,8.105897,-80.977592,15/06/2017
Area frente a la Gobernación Santiago,Veraguas,Santiago,Santiago Apóstol,FO,8.099925,-80.967315,20/06/2017
Centro de Salud de Santiago,Veraguas,Santiago,Santiago Apóstol,FO,8.101258,-80.983497,14/06/2017
Direccion Regional del MEDUCA (Mercado Público Municipal),Veraguas,Santiago,Santiago Apóstol,FO,8.098597,-80.982542,14/06/2017
Escuela José Santos Puga,Veraguas,Santiago,Santiago Apóstol,FO,8.098883,-80.972267,20/06/2017
Escuela Juan D. Arosemena 1,Veraguas,Santiago,Santiago Apóstol,FO,8.102094,-80.978608,14/06/2017
Escuela Juan D. Arosemena # 2,Veraguas,Santiago,Santiago Apóstol,FO,8.102094,-80.978608,13/06/2017
Escuela La Primavera,Veraguas,Santiago,Santiago Apóstol,FO,8.091906,-80.979906,16/06/2017
Escuela Manuel H. Perez,Veraguas,Santiago,Santiago Apóstol,FO,8.10105,-80.974061,19/06/2017
IFARHU Santiago,Veraguas,Santiago,Santiago Apóstol,FO,8.106472,-80.973,19/06/2017
Instituto Profesional y Tecnico Omar Torrijos,Veraguas,Santiago,Santiago Apóstol,FO,8.101808,-80.969311,20/06/2017
IPHE Santiago,Veraguas,Santiago,Santiago Apóstol,FO,8.107694,-80.977278,15/06/2017
Parque Central Santiago,Veraguas,Santiago,Santiago Apóstol,FO,8.097489,-80.983322,20/06/2017
Policlínica de la Caja de Seguro Social Santiago,Veraguas,Santiago,Santiago Apóstol,FO,8.108022,-80.980572,15/06/2017
Terminal de Transporte Santiago,Veraguas,Santiago,Santiago Apóstol,FO,8.103556,-80.974,21/06/2017
C.O.I.F. CALLE PRIMERA,Veraguas,Santiago,Santiago Apóstol,FO,8.093266,-80.980317,30/06/2017
C.E.B.G. Bolívar,Veraguas,Sona,El Marañón,FO,8.026758,-81.233812,23/06/2017
Escuela Cerro Largo.,Veraguas,Sona,El Marañón,Satelital,8.055085,-81.249693,20/10/2017
Escuela Isabel Arosemena de Ábrego,Veraguas,Sona,El Marañón,FO,8.00564,-81.280526,23/11/2017
C.E. Dr. Ricardo Martinelli P.,Veraguas,Sona,Guarumal,FO,8.012347,-81.318108,1/8/2017
Escuela La Trinchera,Veraguas,Sona,Guarumal,FO,7.798697,-81.27636,1/8/2017
C.E.B.G. El Hicaco,Veraguas,Sona,Río Grande,Satelital,7.654057,-81.204126,23/10/2017
Colegio Eduardo Sánchez Díaz,Veraguas,Sona,Río Grande,Satelital,7.729611,-81.28105,12/1/2018
ESC. SANTA CATALINA,Veraguas,Sona,Río Grande,Satelital,7.634991,-81.258898,20/10/2017
Escuela Julieta de Duarte,Veraguas,Sona,Río Grande,Satelital,7.702468,-81.301218,23/10/2017
Escuela Madre Vieja,Veraguas,Sona,Río Grande,Satelital,7.675719,-81.331612,23/10/2017
Biblioteca Pública Jacinto Velásquez,Veraguas,Sona,Sona,FO,8.008226,-81.313891,22/06/2017
Correos Nacionales Sona,Veraguas,Sona,Sona,FO,8.0105,-81.313797,23/06/2017
Escuela José Bonifacio Alvarado,Veraguas,Sona,Sona,FO,8.008367,-81.313797,23/06/2017
Escuela San José,Veraguas,Sona,Sona,FO,8.00525,-81.313797,22/06/2017
Hospital Regional de Salud Sona,Veraguas,Sona,Sona,FO,8.025562,-81.241041,27/06/2017
IPHE Sona,Veraguas,Sona,Sona,FO,8.008283,-81.313797,22/06/2017
MIDES Sona,Veraguas,Sona,Sona,FO,8.00575,-81.313797,22/06/2017
Municipio de Sona,Veraguas,Sona,Sona,FO,8.01045,-81.313797,27/06/2017
Parque Centenario Sona,Veraguas,Sona,Sona,FO,8.008883,-81.313811,27/06/2017
Terminal de Pasajeros de Sona,Veraguas,Sona,Sona,FO,8.006817,-81.313797,23/06/2017
Universidad de Panama Sona,Veraguas,Sona,Sona,FO,8.0105,-81.313797,13/07/2017
Area frente al Ministerio de Desarrollo Social Barrio Norte,Colon,Colon,Barrio Norte,PMP,9.357549,-79.891019,19/07/2017
Biblioteca Pública Mateo Iturralde CENTRO ACP,Colon,Colon,Barrio Norte,PMP,9.364335,-79.904098,16/05/2017
Carlos Clement-Barrio Norte,Colon,Colon,Barrio Norte,PMP,9.364992,-79.903208,16/05/2017
Centro de Aprendizaje TIC`s MINISTERIO DE SEGURIDAD,Colon,Colon,Barrio Norte,PMP,9.360992,-79.900615,17/05/2017
Colegio José Guardia Vega-Barrio Norte,Colon,Colon,Barrio Norte,PMP,9.364171,-79.898955,16/05/2017
Esc. Republica del Paraguay,Colon,Colon,Barrio Norte,PMP,9.365749,-79.901124,16/05/2017
Instituto Panameño de Rehabilitacion,Colon,Colon,Barrio Norte,PMP,9.364027,-79.896093,19/05/2017
Instituto Rufo A. Gray-Barrio Norte,Colon,Colon,Barrio Norte,PMP,9.363654,-79.896342,15/05/2017
Juan A. Henriquez-Barrio Norte,Colon,Colon,Barrio Norte,PMP,9.365907,-79.902629,16/05/2017
Hospital Amador Guerrero,Colon,Colon,Barrio Sur,PMP,9.358147,-79.893993,15/05/2017
Iglesia San Jose,Colon,Colon,Barrio Sur,PMP,9.357123,-79.90156,17/05/2017
Terminal de Transporte de Panama- Colon (Esc. En Busca de un Mañana),Colon,Colon,Barrio Sur,PMP,9.352211,-79.903396,19/05/2017
C.E.B.G. Elisa Vda. de Garrido,Colon,Colon,Buena Vista,FO,9.273177,-79.695606,10/7/2017
Esc. Altos de Divisa,Colon,Colon,Buena Vista,FO,9.25408,-79.711682,10/7/2017
Esc. La Coclesana,Colon,Colon,Buena Vista,PTP,9.275496,-79.671512,11/7/2017
Esc. Quebrada Bonita Nº 1,Colon,Colon,Buena Vista,PTP,9.29793,-79.70543,10/7/2017
Escuela Peñas Blancas,Colon,Colon,Buena Vista,FO,9.303678,-79.681306,21/07/2017
Policía Nacional Buena Vista,Colon,Colon,Buena Vista,FO,9.273796,-79.696388,11/5/2017
C.E.B.G. Manuel Urbano Ayarza,Colon,Colon,Cativá,FO,9.362082,-79.838734,15/05/2017
Esc. La Represa,Colon,Colon,Cativá,FO,9.336746,-79.839971,21/07/2017
I.P.T. de Colon,Colon,Colon,Cativá,FO,9.359976,-79.825941,15/05/2017
Colegio Abel Bravo,Colon,Colon,Cristóbal,FO,9.323901,-79.885412,17/07/2017
C.E.B.G. Luis Jimenez,Colon,Colon,Puerto Pilón,PMP,9.360024,-79.791104,12/5/2017
ESC. VILLA ALONDRA,Colon,Colon,Puerto Pilón,FO,9.387963,-79.781235,19/05/2017
Junta Comunal de Puerto Pilón (Parque de Las Madres),Colon,Colon,Puerto Pilón,PMP,9.364661,-79.794607,12/5/2017
Parque público junto a la Iglesia Sagrada Familia de Nazaret en Puerto Pilón (Gimnasio Puerto Pilón),Colon,Colon,Puerto Pilón,PMP,9.359542,-79.792478,19/05/2017
Esc. Felipe Salabarria Mesa,Colon,Colon,Sabanitas,FO,9.373288,-79.788372,19/05/2017
Esc. Santa Rita Arriba,Colon,Colon,Sabanitas,PMP,9.354635,-79.806526,11/5/2017
Escuela Crispino Ceballos,Colon,Colon,Sabanitas,PMP,9.354814,-79.806611,12/5/2017
Escuela Marco Ramón Vásquez,Colon,Colon,Sabanitas,HFC,9.34271,-79.807492,19/07/2017
Instituto Benigno Jimenez,Colon,Colon,Sabanitas,PMP,9.352116,-79.801701,12/5/2017
Junta Comunal de Sabanitas,Colon,Colon,Sabanitas,PMP,9.347678,-79.808005,12/5/2017
Policlinica Hospital de Sabanitas,Colon,Colon,Sabanitas,PMP,9.346347,-79.806342,11/5/2017
Col. Secundario Gatuncillo,Colon,Colon,San Juan,FO,9.250694,-79.643019,5/6/2017
Corregiduría San juan,Colon,Colon,San Juan,FO,9.247384,-79.650247,10/5/2017
Esc. Dr. Augusto S. Boyd Nº 2,Colon,Colon,San Juan,FO,9.253857,-79.648281,11/5/2017
Esc. Nvo. Vigía,Colon,Colon,San Juan,FO,9.244655,-79.607783,5/6/2017
Esc. Buenaventura,Colon,Portobelo,San Felipe de Portobelo,FO,9.535155,-79.669682,18/05/2017
Municipio Portobelo,Colon,Portobelo,San Felipe de Portobelo,FO,9.553594,-79.656806,18/05/2017
Parque de la Iglesia,Colon,Portobelo,San Felipe de Portobelo,FO,9.553561,-79.655868,18/05/2017
Escuela Alto Playón,Comarca Embera,Cemaco,Lajas Blancas,Satelital,8.53675,-77.882749,7/8/2017
Escuela Río Tuqueza,Comarca Embera,Cemaco,Lajas Blancas,Satelital,8.467305,-77.697471,10/8/2017
Escuela Arcadio Martínez,Comarca Kuna Yala,Comarca Kuna Yala,Tubualá,Satelital,8.92176,-77.724348,7/8/2017
Escuela Nabagandi,Comarca Kuna Yala,Comarca Kuna Yala,Tubualá,Satelital,9.023974,-77.801834,7/8/2017
Parque Comunidad MULADUP,Comarca Kuna Yala,Comarca Kuna Yala,Tubualá,Satelital,8.947047,-77.751085,7/8/2017
Parque Comunidad Sasardi,Comarca Kuna Yala,Comarca Kuna Yala,Tubualá,Satelital,8.946453,-77.75165,7/8/2017
Escuela Agua Fría Nº 1,Darien,Chepigana,Agua Fría,FO,8.860915,-78.196082,20/06/2017
Escuela Agua Fría Nº 2,Darien,Chepigana,Agua Fría,FO,8.826471,-78.190249,20/06/2017
Escuela El Tirado,Darien,Chepigana,Agua Fría,FO,8.766567,-78.173499,19/06/2017
Centro de Alcance Positivo Garachine,Darien,Chepigana,Garachiné,Satelital,8.066667,-78.365278,22/08/2017
Centro de Alcance Positivo Jaque,Darien,Chepigana,Jaqué,Satelital,7.518428,-78.162023,7/8/2017
Centro de Alcance Positivo La Palma,Darien,Chepigana,La Palma,PMP,8.4025,-78.141389,21/06/2017
Hospital de la Palma,Darien,Chepigana,La Palma,PMP,8.401411,-78.138339,22/06/2017
I.P.T. Alejandro Castillo,Darien,Chepigana,La Palma,PMP,8.402317,-78.14153,21/06/2017
Juzgado Municipal La Palma,Darien,Chepigana,La Palma,PMP,8.407959,-78.141177,21/06/2017
Mercado Público La Palma,Darien,Chepigana,La Palma,PMP,8.406702,-78.137191,21/06/2017
Parque,Darien,Chepigana,La Palma,PMP,8.408155,-78.139614,21/06/2017
Universidad Nacional,Darien,Chepigana,La Palma,PMP,8.403791,-78.138605,22/06/2017
Centro de Alcance Positivo Sambu,Darien,Chepigana,Sambu,Satelital,8.025556,-78.209167,7/8/2017
CENTRO EDUCATIVO SECUNDARIO ZAPALLAL,Darien,Chepigana,Santa Fe,FO,8.650838,-78.132346,19/06/2017
Escuela El Zapallal,Darien,Chepigana,Santa Fe,FO,8.649365,-78.127736,19/06/2017
Escuela GERARDO BACORIZO,Darien,Chepigana,Santa Fe,FO,8.693971,-78.143304,1/8/2017
Escuela La Cantera,Darien,Chepigana,Santa Fe,FO,8.642198,-78.170516,19/06/2017
Escuela Sta. Fe,Darien,Chepigana,Santa Fe,FO,8.661193,-78.157471,1/8/2017
Escuela Zimba,Darien,Chepigana,Santa Fe,FO,8.770915,-78.22136,1/8/2017
Area frente al MIDES,Darien,Pinogana,Metetí,FO,8.509325,-77.975703,20/06/2017
C.E.B.G. Marcos A. Alarcon P.,Darien,Pinogana,Metetí,FO,8.497153,-77.981031,20/06/2017
Escuela Canglon (Instituto Forestal Agropecuario de Darién),Darien,Pinogana,Metetí,FO,8.34175,-77.828582,10/8/2017
Hospital de Meteti,Darien,Pinogana,Metetí,FO,8.498774,-77.980546,20/06/2017
IPHE Metetí,Darien,Pinogana,Metetí,FO,8.50213,-77.980718,20/06/2017
Municipio de Metetí,Darien,Pinogana,Metetí,FO,8.501914,-77.973,22/06/2017
Parque Comunitario - cancha de baloncesto y futbol,Darien,Pinogana,Metetí,FO,8.50165,-77.97885,20/06/2017
Servicio Nacional de Fronteras - Candela,Darien,Pinogana,Metetí,FO,8.496931,-77.972,20/06/2017
Terminal de Transporte Metetí,Darien,Pinogana,Metetí,FO,8.492036,-77.983802,20/06/2017
Area frente al Ministerio de Desarrollo Social Chepo,Panama,Chepo,San Cristóbal de Chepo,FO,9.174184,-79.090803,14/07/2017
C.E.B.G. Clímaco Delgado B.,Panama,Chepo,Cañita,FO,9.225647,-78.893608,14/07/2017
C.E.B.G. Santa Isabel ,Panama,Chepo,San Cristóbal de Chepo,FO,9.161328,-79.096714,14/07/2017
COL. VENANCIO FENOSA PASCUAL,Panama,Chepo,San Cristóbal de Chepo,FO,9.178414,-79.091082,14/07/2017
Colegio Venacio F. Pascual,Panama,Chepo,San Cristóbal de Chepo,FO,9.178183,-79.091017,14/07/2017
Escuela José G. Duque,Panama,Chepo,San Cristóbal de Chepo,FO,9.172497,-79.088744,14/07/2017
Escuela Tierra Prometida,Panama,Chepo,San Cristóbal de Chepo,HFC,9.150636,-79.210249,13/07/2017
Escuela Unión de Azuero,Panama,Chepo,San Cristóbal de Chepo,FO,9.157858,-79.16886,2/8/2017
Hospital Regional de Chepo,Panama,Chepo,San Cristóbal de Chepo,FO,9.1615,-79.096383,14/07/2017
I. P. T. México - Panama,Panama,Chepo,San Cristóbal de Chepo,FO,9.135636,-79.227749,13/07/2017
INADEH Chepo,Panama,Chepo,San Cristóbal de Chepo,FO,9.17925,-79.09155,14/07/2017
Palacio Municipal Francisco de Leon,Panama,Chepo,San Cristóbal de Chepo,FO,9.173149,-79.090011,14/07/2017
Terminal de Transporte Chepo,Panama,Chepo,San Cristóbal de Chepo,FO,9.167933,-79.094336,14/07/2017
Universidad de Panama - Regional Panama Este,Panama,Chepo,San Cristóbal de Chepo,FO,9.172553,-79.101474,14/07/2017
Centro de Salud Tortí,Panama,Chepo,Tortí,FO,8.916561,-78.388936,17/07/2017
Centro Educativo de Tortí,Panama,Chepo,Tortí,FO,8.919526,-78.397193,17/07/2017
Escuela Curtí,Panama,Chepo,Tortí,FO,9.004526,-78.53886,17/07/2017
Escuela Ipetí Chocó,Panama,Chepo,Tortí,FO,8.969014,-78.514925,17/07/2017
Escuela Loma Bonita,Panama,Chepo,Tortí,FO,9.018485,-78.560349,17/07/2017
Escuela Maria Elena Díaz,Panama,Chepo,Tortí,FO,8.967026,-78.466638,17/07/2017
Escuela Nuevo Panama,Panama,Chepo,Tortí,FO,8.893415,-78.32636,17/07/2017
Escuela Palmas Bellas,Panama,Chepo,Tortí,FO,8.878137,-78.292193,17/07/2017
Escuela Playa Chuzo Afuera,Panama,Chepo,Tortí,FO,8.940833,-78.303056,17/07/2017
Escuela Quebrada Cali,Panama,Chepo,Tortí,FO,9.081747,-78.68636,17/07/2017
Escuela San Francisco de Piriatí,Panama,Chepo,Tortí,FO,9.05147,-78.624415,17/07/2017
Escuela San José de Cañazas,Panama,Chepo,Tortí,FO,8.917004,-78.243272,17/07/2017
Escuela Sta. Rosa de Lima,Panama,Chepo,Tortí,FO,8.979736,-78.502408,17/07/2017
Area frente a la Autoridad de los Servicios Publicos - 24 de Diciembre,Panama,Panama,24 de Diciembre,FO,9.104736,-79.370502,13/07/2017
Area frente a la Autoridad Nacional de Aduanas (departamento Fiscalización),Panama,Panama,24 de Diciembre,HFC,9.078109,-79.370261,5/7/2017
C.E.B.G. La Siesta,Panama,Panama,24 de Diciembre,HFC,9.079175,-79.356808,26/07/2017
C.E.B.G. Vista Hermosa,Panama,Panama,24 de Diciembre,HFC,9.117719,-79.358216,16/06/2017
Centro de Salud Chase Kiwanis 24 de Diciembre,Panama,Panama,24 de Diciembre,HFC,9.106205,-79.362132,26/05/2017
ESC. CERRO AZUL,Panama,Panama,24 de Diciembre,Satelital,9.188333,-79.406111,10/8/2017
Esc. Primaria Sta. Maria de los Angeles,Panama,Panama,24 de Diciembre,HFC,9.098251,-79.35672,26/05/2017
ESC. UNION CENTROAMERICANA,Panama,Panama,24 de Diciembre,FO,9.120137,-79.552397,12/7/2017
Escuela 24 de Diciembre,Panama,Panama,24 de Diciembre,HFC,9.098316,-79.364728,7/7/2017
Escuela Juan E. Jiménez,Panama,Panama,24 de Diciembre,Satelital,9.190914,-79.405804,10/8/2017
Junta Comunal 24 de Diciembre,Panama,Panama,24 de Diciembre,FO,9.097441,-79.362166,8/6/2017
Municipio 24 de Diciembre,Panama,Panama,24 de Diciembre,FO,9.102703,-79.365626,13/07/2017
Policia Nacional 24 de Diciembre,Panama,Panama,24 de Diciembre,HFC,9.103241,-79.365652,5/7/2017
C.E.B.G. Melchor Lasso de La Vega,Panama,Panama,Alcalde Díaz,FO,9.116421,-79.544758,8/5/2017
Escuela La Cabima,Panama,Panama,Alcalde Díaz,FO,9.114173,-79.537732,9/5/2017
Escuela Maria Henríquez,Panama,Panama,Alcalde Díaz,FO,9.11084,-79.528597,8/5/2017
Escuela Nicole Garay,Panama,Panama,Alcalde Díaz,FO,9.126063,-79.571626,10/5/2017
Escuela Unión Panamericana,Panama,Panama,Alcalde Díaz,FO,9.1206,-79.552178,9/5/2017
Junta Comunal de Alcalde Díaz,Panama,Panama,Alcalde Díaz,FO,9.115834,-79.544415,8/5/2017
Escuela Kuna Nega,Panama,Panama,Ancón,PTP,9.059178,-79.558975,18/07/2017
Instituto Bolivar,Panama,Panama,Ancón,HFC,8.964375,-79.554198,6/7/2017
Mi Pueblito,Panama,Panama,Ancón,PTP,8.954362,-79.546488,14/06/2017
Hospital del Niño,Panama,Panama,Bella Vista,PMP,8.968748,-79.532901,19/07/2017
P.C. Panama,Panama,Panama,Bella Vista,PMP,8.975243,-79.533527,8/6/2017
Corregiduria Municipal,Panama,Panama,Betania,PMP,9.004954,-79.522351,24/04/2017
Escuela El Japón,Panama,Panama,Betania,FO,8.993125,-79.537293,25/04/2017
Escuela José A. Arango,Panama,Panama,Betania,PMP,9.005832,-79.528223,25/04/2017
Escuela Octavio Méndez Pereira,Panama,Panama,Betania,FO,9.018464,-79.531289,20/07/2017
Escuela Santa Familia,Panama,Panama,Betania,FO,9.005683,-79.525006,25/04/2017
Instituto América,Panama,Panama,Betania,FO,9.020321,-79.528729,24/04/2017
IPT de Comercio,Panama,Panama,Betania,FO,9.01014,-79.519111,24/05/2017
Policlinica Alejandro de la Guardia,Panama,Panama,Betania,FO,9.021731,-79.525523,25/04/2017
C.E.B.G. Presidente Roosevelt,Panama,Panama,Chilibre,FO,9.164287,-79.618498,5/6/2017
C.E.B.G. MARIA LA TORRE,Panama,Panama,Chilibre,PTP,9.174286,-79.562273,25/07/2017
C.E.B.G. NUEVO CAIMITILLO,Panama,Panama,Chilibre,FO,9.2038,-79.537365,10/5/2017
Centro de Salud de Chilibre,Panama,Panama,Chilibre,FO,9.174379,-79.610989,12/5/2017
ESC. DOMINGO ROMERO,Panama,Panama,Chilibre,PTP,9.167774,-79.53183,11/7/2017
ESC. EL ÑAJU,Panama,Panama,Chilibre,PTP,9.164986,-79.626943,10/5/2017
Escuela Don Bosco Rural,Panama,Panama,Chilibre,PTP,9.133365,-79.613538,9/5/2017
Escuela John F. Kennedy,Panama,Panama,Chilibre,FO,9.121963,-79.60355,9/5/2017
Escuela Santos Jorge A.,Panama,Panama,Chilibre,FO,9.154997,-79.619812,18/07/2017
Escuela Tomás Arias,Panama,Panama,Chilibre,FO,9.174296,-79.611647,11/5/2017
Escuela Villa Unida,Panama,Panama,Chilibre,FO,9.191468,-79.624003,5/6/2017
I.P.T. Chilibre,Panama,Panama,Chilibre,FO,9.186953,-79.64523,17/07/2017
Policía Nacional de Chilibre (Maria Eugenia),Panama,Panama,Chilibre,FO,9.151078,-79.619925,11/5/2017
Area frente a Sinaproc - Base Curundú,Panama,Panama,Curundú,PMP,8.969998,-79.543967,18/07/2017
Biblioteca del Fe y Alegria,Panama,Panama,Curundú,PMP,8.970739,-79.543089,31/05/2017
Centro de salud Curundu,Panama,Panama,Curundú,PMP,8.970208,-79.543331,31/05/2017
Escuela Artes y Oficios (Melchor Lasso de la Vega),Panama,Panama,Curundú,PMP,8.991987,-79.531715,11/7/2017
Escuela Artes y Oficios (Melchor Lasso de la Vega) 2,Panama,Panama,Curundú,PMP,8.986772,-79.53536,1/6/2017
Escuela Republica de Jamaica,Panama,Panama,Curundú,PMP,8.984607,-79.537029,1/6/2017
Proyecto Curundú Torre 1 Edificio A,Panama,Panama,Curundú,PMP,8.970222,-79.543705,26/06/2017
Proyecto Curundú Torre 1 Edificio B,Panama,Panama,Curundú,PMP,8.970222,-79.543705,26/06/2017
Proyecto Curundú Torre 10 Edificio A,Panama,Panama,Curundú,PMP,8.970461,-79.545573,26/06/2017
Proyecto Curundú Torre 10 Edificio B,Panama,Panama,Curundú,PMP,8.970461,-79.545573,26/06/2017
Proyecto Curundú Torre 10 Edificio C,Panama,Panama,Curundú,PMP,8.970461,-79.545573,29/06/2017
Proyecto Curundú Torre 12 Edificio A,Panama,Panama,Curundú,PMP,8.970108,-79.545532,26/06/2017
Proyecto Curundú Torre 12 Edificio B,Panama,Panama,Curundú,PMP,8.970108,-79.545532,26/06/2017
Proyecto Curundú Torre 13 Edificio A,Panama,Panama,Curundú,PMP,8.969581,-79.545777,30/06/2017
Proyecto Curundú Torre 13 Edificio B,Panama,Panama,Curundú,PMP,8.969581,-79.545777,30/06/2017
Proyecto Curundú Torre 17 Edificio A,Panama,Panama,Curundú,PMP,8.968788,-79.545164,26/06/2017
Proyecto Curundú Torre 17 Edificio B,Panama,Panama,Curundú,PMP,8.969407,-79.545998,26/06/2017
Proyecto Curundú Torre 18 Edificio A,Panama,Panama,Curundú,PMP,8.96851,-79.544559,26/06/2017
Proyecto Curundú Torre 18 Edificio B,Panama,Panama,Curundú,PMP,8.96851,-79.544559,26/06/2017
Proyecto Curundú Torre 18 Edificio C,Panama,Panama,Curundú,PMP,8.96851,-79.544559,26/06/2017
Proyecto Curundú Torre 19 Edificio A,Panama,Panama,Curundú,PMP,8.968052,-79.544708,26/06/2017
Proyecto Curundú Torre 19 Edificio B,Panama,Panama,Curundú,PMP,8.968052,-79.544708,26/06/2017
Proyecto Curundú Torre 19 Edificio C,Panama,Panama,Curundú,PMP,8.968052,-79.544708,26/06/2017
Proyecto Curundú Torre 2 Edificio A,Panama,Panama,Curundú,PMP,8.970458,-79.543995,29/06/2017
Proyecto Curundú Torre 2 Edificio B,Panama,Panama,Curundú,PMP,8.970458,-79.543995,29/06/2017
Proyecto Curundú Torre 2 Edificio C,Panama,Panama,Curundú,PMP,8.970458,-79.543995,29/06/2017
Proyecto Curundú Torre 20 Edificio A,Panama,Panama,Curundú,PMP,8.968019,-79.545192,30/06/2017
Proyecto Curundú Torre 20 Edificio B,Panama,Panama,Curundú,PMP,8.968019,-79.545192,18/07/2017
Proyecto Curundú Torre 21 Edificio A,Panama,Panama,Curundú,PMP,8.968489,-79.545716,30/06/2017
Proyecto Curundú Torre 21 Edificio B,Panama,Panama,Curundú,PMP,8.968489,-79.545716,3/7/2017
Proyecto Curundú Torre 21 Edificio C,Panama,Panama,Curundú,PMP,8.968489,-79.545716,3/7/2017
Proyecto Curundú Torre 25 Edificio A,Panama,Panama,Curundú,PMP,8.967926,-79.5461,18/07/2017
Proyecto Curundú Torre 25 Edificio B,Panama,Panama,Curundú,PMP,8.967926,-79.5461,27/06/2017
Proyecto Curundú Torre 26 Edificio A,Panama,Panama,Curundú,PMP,8.968547,-79.546845,3/7/2017
Proyecto Curundú Torre 26 Edificio B,Panama,Panama,Curundú,PMP,8.968547,-79.546845,3/7/2017
Proyecto Curundú Torre 26 Edificio C,Panama,Panama,Curundú,PMP,8.968547,-79.546845,3/7/2017
Proyecto Curundú Torre 3 Edificio A,Panama,Panama,Curundú,PMP,8.970685,-79.544271,26/06/2017
Proyecto Curundú Torre 3 Edificio B,Panama,Panama,Curundú,PMP,8.970685,-79.544271,26/06/2017
Proyecto Curundú Torre 4 Edificio A,Panama,Panama,Curundú,PMP,8.970591,-79.544307,29/06/2017
Proyecto Curundú Torre 4 Edificio B,Panama,Panama,Curundú,PMP,8.970591,-79.544307,29/06/2017
Proyecto Curundú Torre 4 Edificio C,Panama,Panama,Curundú,PMP,8.970591,-79.544307,29/06/2017
Proyecto Curundú Torre 6 Edificio A,Panama,Panama,Curundú,PMP,8.970175,-79.543838,28/06/2017
Proyecto Curundú Torre 6 Edificio B,Panama,Panama,Curundú,PMP,8.970175,-79.543838,28/06/2017
Proyecto Curundú Torre 7 Edificio A,Panama,Panama,Curundú,PMP,8.970403,-79.543887,28/06/2017
Proyecto Curundú Torre 7 Edificio B,Panama,Panama,Curundú,PMP,8.970403,-79.543887,28/06/2017
Proyecto Curundú Torre 8 Edificio A,Panama,Panama,Curundú,PMP,8.970566,-79.545126,28/06/2017
Proyecto Curundú Torre 8 Edificio B,Panama,Panama,Curundú,PMP,8.970566,-79.545126,28/06/2017
Proyecto Curundú Torre 9 Edificio A,Panama,Panama,Curundú,PMP,8.970778,-79.54564,3/7/2017
Centro de Aprendizaje TIC´s MINISTERIO DE SEGURIDAD,Panama,Panama,El Chorrillo,FO,8.950667,-79.547787,14/06/2017
Escuela Nuevo Progreso,Panama,Panama,Ernesto Córdoba Campos,FO,9.093618,-79.496543,6/6/2017
Escuela San Juan Pablo II,Panama,Panama,Ernesto Córdoba Campos,FO,9.098241,-79.51486,21/07/2017
Escuela Santa Rita,Panama,Panama,Ernesto Córdoba Campos,FO,9.077369,-79.502683,30/05/2017
Escuela Villa Milagros,Panama,Panama,Ernesto Córdoba Campos,PTP,9.091225,-79.504271,12/6/2017
Escuela Carmen Sole Bosch,Panama,Panama,Juan Díaz,PMP,9.0472,-79.464818,8/6/2017
Escuela Elena Chávez De Piñate,Panama,Panama,Juan Díaz,PMP,9.039655,-79.444237,16/06/2017
Escuela Elena Chávez de Piñate 2,Panama,Panama,Juan Díaz,PMP,9.039172,-79.445205,28/04/2017
Escuela Gaspar O. Hernandez,Panama,Panama,Juan Díaz,PMP,9.041702,-79.467939,26/04/2017
Escuela Jose Ma. Torrijos en Concepción,Panama,Panama,Juan Díaz,PMP,9.043679,-79.427356,24/05/2017
Escuela Primaria Federico Escobar (Escuela Las Acacias),Panama,Panama,Juan Díaz,HFC,9.050292,-79.419875,25/07/2017
Escuela Republica de Guatemala,Panama,Panama,Juan Díaz,PMP,9.049526,-79.43228,7/6/2017
Escuela Toribio Berrios Sosa,Panama,Panama,Juan Díaz,PMP,9.040195,-79.442303,24/05/2017
Escuela Villa Catalina,Panama,Panama,Juan Díaz,FO,9.061094,-79.414991,22/05/2017
IPT Don Bosco,Panama,Panama,Juan Díaz,FO,9.049925,-79.413939,25/07/2017
IPT Juan Díaz,Panama,Panama,Juan Díaz,PMP,9.037191,-79.443352,22/05/2017
Parque de Las Madres Juan Díaz,Panama,Panama,Juan Díaz,PMP,9.0453,-79.445117,22/05/2017
Policlinica J.J. Vallarino,Panama,Panama,Juan Díaz,FO,9.055493,-79.434591,24/05/2017
Biblioteca Pública Eusebio A. Morales,Panama,Panama,Santa Ana,PMP,8.961011,-79.542435,19/07/2017
Escuela Pedro José Sosa,Panama,Panama,Calidonia,PMP,8.970247,-79.538806,14/06/2017
Escuela Republica de Chile,Panama,Panama,Calidonia,PMP,8.968948,-79.536941,11/7/2017
Escuela Republica Federativa de Brasil,Panama,Panama,Calidonia,PMP,8.968605,-79.53984,1/6/2017
Parque Porras,Panama,Panama,Calidonia,FO,8.969853,-79.536242,2/8/2017
Plaza Víctor Julio Gutiérrez,Panama,Panama,Calidonia,PMP,8.968302,-79.537787,15/06/2017
Policlinica Manuel Ferrer Marañon (Pediatrica),Panama,Panama,Calidonia,PMP,9.009054,-79.50789,31/05/2017
C.E.B.G. Santa Librada Rural,Panama,Panama,Las Cumbres,PTP,9.072328,-79.53481,27/07/2017
Escuela Grecia,Panama,Panama,Las Cumbres,FO,9.105222,-79.562464,10/7/2017
Escuela Guillermo Patterson,Panama,Panama,Las Cumbres,FO,9.079017,-79.569047,9/6/2017
Escuela República Árabe de Egipto,Panama,Panama,Las Cumbres,FO,9.087964,-79.533253,8/5/2017
Escuela Republica de Rumania,Panama,Panama,Las Cumbres,HFC,9.097456,-79.515202,9/5/2017
Escuela República. de la India,Panama,Panama,Las Cumbres,FO,9.076106,-79.526841,8/5/2017
Escuela San Pablo y Villa Nueva,Panama,Panama,Las Cumbres,FO,9.118642,-79.585618,5/6/2017
Escuela Villa Cárdenas,Panama,Panama,Las Cumbres,PTP,9.061804,-79.548964,27/07/2017
Instituto Mons. Francisco Beckman,Panama,Panama,Las Cumbres,HFC,9.100084,-79.530969,9/5/2017
Centro de salud Mañanitas,Panama,Panama,Las Mañanitas,HFC,9.095932,-79.405547,23/05/2017
Centro Parvulario Municipal,Panama,Panama,Las Mañanitas,FO,9.08126,-79.404317,26/05/2017
Corregiduria Las Mañanitas,Panama,Panama,Las Mañanitas,FO,9.080716,-79.4037,7/6/2017
Escuela de Holanda,Panama,Panama,Las Mañanitas,FO,9.081353,-79.406558,23/05/2017
Escuela El Salvador,Panama,Panama,Las Mañanitas,HFC,9.101692,-79.407306,23/05/2017
Escuela Génesis,Panama,Panama,Las Mañanitas,HFC,9.109284,-79.395959,23/05/2017
Escuela Jardín de las Mañanitas,Panama,Panama,Las Mañanitas,HFC,9.094391,-79.407097,9/6/2017
Escuela Primaria Don Bosco,Panama,Panama,Las Mañanitas,FO,9.050815,-79.414431,25/05/2017
Escuela Primer Ciclo San Miguel Arcángel,Panama,Panama,Las Mañanitas,HFC,9.095724,-79.405683,7/7/2017
Junta Comunal de Mañanitas,Panama,Panama,Las Mañanitas,HFC,9.094938,-79.406514,5/7/2017
Policía Nacional Las Mañanitas,Panama,Panama,Las Mañanitas,HFC,9.096544,-79.408977,7/7/2017
Centro de Salud de Pacora,Panama,Panama,Pacora,FO,9.086851,-79.289839,12/7/2017
ESC. CARLOS C. AROSEMENA,Panama,Panama,Pacora,HFC,9.131111,-79.296667,12/7/2017
ESC. CIUDAD SANTA FE,Darien,Chepigana,Santa Fe,FO,8.658781,-78.159147,12/7/2017
ESC. PRESIDENTE VALDES,Panama,Panama,Pacora,FO,9.114786,-79.270419,12/7/2017
ESC. VIRGEN DE GUADALUPE,Panama,Panama,Pacora,FO,9.127336,-79.254655,12/7/2017
Escuela China Taiwan,Panama,Panama,Pacora,FO,9.081697,-79.296399,12/7/2017
Escuela Luis N. Herazo,Panama,Panama,Pacora,FO,9.113136,-79.337193,12/7/2017
Escuela Paso Blanco,Panama,Panama,Pacora,FO,9.128969,-79.24636,12/7/2017
Escuela Pueblo Nuevo,Panama,Panama,Pacora,PTP,9.126275,-79.308003,12/7/2017
Escuela Rep. de Honduras,Panama,Panama,Pacora,FO,9.085474,-79.291282,12/7/2017
Escuela San Diego,Panama,Panama,Pacora,FO,9.099195,-79.251428,13/07/2017
ESCUELA UTIVÉ,Panama,Panama,Pacora,PTP,9.15508,-79.323582,6/6/2017
Junta Comunal de Pacora,Panama,Panama,Pacora,FO,9.08212,-79.2893,12/7/2017
la Iglesia Inmaculada Concepción,Panama,Panama,Pacora,FO,9.082551,-79.286206,12/7/2017
PISCINA MUNICIPAL PACORA,Panama,Panama,Pacora,FO,9.088303,-79.291093,12/7/2017
Policía de Pacora,Panama,Panama,Pacora,FO,9.084487,-79.287252,12/7/2017
Terminal de Transporte Pacora,Panama,Panama,Pacora,FO,9.087256,-79.28758,12/7/2017
Biblioteca Miguel Angel Ordoñez,Panama,Panama,Parque Lefevre,PMP,9,-79.498728,26/04/2017
Centro de Artesanias Panama Viejo,Panama,Panama,Parque Lefevre,PMP,9.003576,-79.493885,8/6/2017
Escuela Juan Bautista Sosa,Panama,Panama,Parque Lefevre,PMP,9.007689,-79.49319,25/04/2017
Escuela Manuel Espinoza Batista,Panama,Panama,Parque Lefevre,PMP,9,-79.504069,26/04/2017
Escuela Maria Ossa de Amador,Panama,Panama,Parque Lefevre,PMP,9.011128,-79.500537,25/04/2017
Escuela República de Haití,Panama,Panama,Parque Lefevre,PMP,9.019012,-79.49199,24/05/2017
Escuela Sara Sotillo,Panama,Panama,Parque Lefevre,PMP,9.012558,-79.485377,25/04/2017
Instituto Jose Dolores Moscote,Panama,Panama,Parque Lefevre,PMP,9.02002,-79.488141,24/05/2017
Biblioteca en la junta comunal,Panama,Panama,Pedregal,FO,9.070505,-79.424274,28/04/2017
Escuela Ascanio Villalaz,Panama,Panama,Pedregal,FO,9.077202,-79.420497,25/05/2017
Escuela Dr. Juan Arturo Martinelli,Panama,Panama,Pedregal,HFC,9.110358,-79.454415,27/07/2017
Escuela José Pablo Paredes,Panama,Panama,Pedregal,FO,9.100427,-79.424502,5/7/2017
Escuela Narciso Garay,Panama,Panama,Pedregal,FO,9.076746,-79.436296,25/05/2017
Escuela Sta. Cruz,Panama,Panama,Pedregal,PTP,9.10999,-79.442244,7/6/2017
Parque de las Madres Pedregal,Panama,Panama,Pedregal,FO,9.07151,-79.424923,25/05/2017
Primaria - Cirilo J. Martinez,Panama,Panama,Pedregal,FO,9.07151,-79.424923,28/04/2017
Primaria - Gran Bretaña,Panama,Panama,Pedregal,FO,9.062509,-79.430304,7/6/2017
Casa de la tercera edad (Pueblo Nuevo),Panama,Panama,Pueblo Nuevo,FO,9.016684,-79.515773,26/04/2017
Escuela Francisco Arias Paredes,Panama,Panama,Pueblo Nuevo,FO,9.012071,-79.515852,25/04/2017
Escuela Ricardo Miró,Panama,Panama,Pueblo Nuevo,PMP,8.99882,-79.523345,27/04/2017
Instituto Comercial Panama,Panama,Panama,Pueblo Nuevo,PMP,9.017155,-79.511378,27/04/2017
Municipio (Junta Comunal),Panama,Panama,Pueblo Nuevo,FO,9.016191,-79.516388,27/04/2017
Parque del Comercial Panama,Panama,Panama,Pueblo Nuevo,PMP,9.017156,-79.511378,27/04/2017
Biblioteca Municipal Juaquin H. Torrijos,Panama,Panama,Rio Abajo,PMP,9.014939,-79.501572,28/04/2017
Escuela Arabe de Libia,Panama,Panama,Río Abajo,PMP,9.024143,-79.499319,24/05/2017
Escuela Mateo Iturralde,Panama,Panama,Río Abajo,PMP,9.026079,-79.492899,25/05/2017
Parque San Cristobal,Panama,Panama,Rio Abajo,PMP,9.025483,-79.494036,20/07/2017
ULAPS San Cristobal,Panama,Panama,Rio Abajo,PMP,9.029247,-79.493757,24/05/2017
Arco Chato,Panama,Panama,San Felipe,PMP,8.951586,-79.533529,11/7/2017
Escuela - República de México,Panama,Panama,San Felipe,PMP,8.953378,-79.536003,1/6/2017
Plaza de Francia,Panama,Panama,San Felipe,PMP,8.95177,-79.533544,11/7/2017
Plaza de La Catedral,Panama,Panama,San Felipe,PMP,8.952761,-79.53502,6/7/2017
Plaza Herrera,Panama,Panama,San Felipe,PMP,8.951947,-79.536912,19/07/2017
Primaria - Estados Unidos de América,Panama,Panama,San Felipe,PMP,8.951333,-79.537918,11/7/2017
Biblioteca José Maria Pinilla,Panama,Panama,San Francisco,PMP,8.993778,-79.501347,27/04/2017
Escuela Belisario Porras,Panama,Panama,San Francisco,PMP,8.988705,-79.504703,12/6/2017
Escuela Federico A. Velazquez (Boca La Caja),Panama,Panama,San Francisco,PMP,8.983444,-79.505892,25/04/2017
Escuela Isabel Herrera de Obaldía,Panama,Panama,San Francisco,FO,8.983052,-79.512933,25/05/2017
Escuela Isabel Herrera de Obaldía 2,Panama,Panama,San Francisco,FO,8.983052,-79.512933,25/05/2017
Escuela José A. Remón Cantera,Panama,Panama,San Francisco,PMP,8.982195,-79.513793,24/04/2017
Escuela Puerto Rico,Panama,Panama,San Francisco,FO,8.998552,-79.514235,26/05/2017
Escuela Republica de Finlandia,Panama,Panama,San Francisco,PMP,8.979638,-79.511995,8/6/2017
Escuela Richard Neumann,Panama,Panama,San Francisco,PMP,8.981369,-79.514144,24/04/2017
Hospital de Especialidades Pediatricas Las Americas,Panama,Panama,San Francisco,FO,9.001222,-79.516827,25/05/2017
Parque Omar - área recreativa techada,Panama,Panama,San Francisco,FO,8.99715,-79.508127,24/04/2017
Parque Omar Salón de la Tercera Edad,Panama,Panama,San Francisco,PMP,9.000112,-79.508251,24/04/2017
ESC. LA MESA,Panama,Panama,San Martín,PTP,9.178414,-79.271638,20/07/2017
ESC. SAN MIGUEL DE PACORA,Panama,Panama,San Martín,Satelital,9.221944,-79.253611,7/8/2017
Escuela Manuel José Hurtado,Panama,Panama,Santa Ana,PMP,8.952688,-79.539576,14/06/2017
Instituto Nacional,Panama,Panama,Santa Ana,PMP,8.957764,-79.542835,6/7/2017
Instituto Nacional 2,Panama,Panama,Santa Ana,PMP,8.959632,-79.542957,6/7/2017
Mercado San Felipe Nery,Panama,Panama,Santa Ana,PMP,8.957458,-79.538665,6/7/2017
Primaria - Dr. Justo Arosemena,Panama,Panama,Santa Ana,PMP,8.954977,-79.542299,18/07/2017
Area frente al INADEH Tocumen,Panama,Panama,Tocumen,FO,9.071477,-79.399056,7/6/2017
Centro de Salud 24 de Diciembre(Tocumen),Panama,Panama,Tocumen,FO,9.092118,-79.37936,9/6/2017
Escuela Nuevo Belen,Panama,Panama,Tocumen,FO,9.089956,-79.394029,23/05/2017
Escuela Primaria Emperatriz Taboada,Panama,Panama,Tocumen,HFC,9.08228,-79.363936,16/06/2017
Escuela Ricardo J. Alfaro,Panama,Panama,Tocumen,FO,9.092201,-79.378892,13/06/2017
Escuela Sector Sur,Panama,Panama,Tocumen,FO,9.081026,-79.388042,9/6/2017
IPT Jephta B. Duncan ( 24 dic.),Panama,Panama,24 de Diciembre,HFC,9.106257,-79.364445,6/6/2017
Junta Comunal de Tocumen,Panama,Panama,Tocumen,HFC,9.097102,-79.375638,6/6/2017
Parque infantil,Panama,Panama,Tocumen,FO,9.083203,-79.384763,23/05/2017
Primer Ciclo Básico de Tocumen,Panama,Panama,Tocumen,FO,9.073384,-79.399282,25/05/2017
Centro de Salud Amelia Denis de Icaza,Panama,San Miguelito,Amelia Denis de Icaza,PMP,9.038716,-79.506197,30/05/2017
Escuela 9 de Enero,Panama,San Miguelito,Amelia Denis de Icaza,PMP,9.039067,-79.515478,27/04/2017
Escuela Amelia Denis De Icaza,Panama,San Miguelito,Amelia Denis de Icaza,PMP,9.045089,-79.50422,30/05/2017
Escuela Gerónimo de la Ossa,Panama,San Miguelito,Amelia Denis de Icaza,PMP,9.036012,-79.50501,24/04/2017
Primer Ciclo Leon A. Soto 1,Panama,San Miguelito,Amelia Denis de Icaza,FO,9.04055,-79.509542,29/05/2017
Primer ciclo Leon A. Soto 2,Panama,San Miguelito,Amelia Denis de Icaza,FO,9.04055,-79.509542,2/6/2017
Primer Ciclo Louis Martin,Panama,San Miguelito,Amelia Denis de Icaza,FO,9.0429,-79.500662,13/06/2017
Centro de Salud Valle de Urracá,Panama,San Miguelito,Arnulfo Arias,PTP,9.069077,-79.48387,13/06/2017
Escuela el Valle de Urraca,Panama,San Miguelito,Arnulfo Arias,FO,9.067549,-79.48713,30/05/2017
Escuela Martin Luther King,Panama,San Miguelito,Belisario Frías,FO,9.060546,-79.489415,12/6/2017
Escuela Primaria Arnulfo Arias,Panama,San Miguelito,Belisario Frías,FO,9.063939,-79.485988,13/07/2017
Junta Comunal Arnulfo Arias Madrid,Panama,San Miguelito,Arnulfo Arias,FO,9.067575,-79.488009,30/05/2017
Area frente al Ministerio de Desarrollo Social Belisario Frías,Panama,San Miguelito,Belisario Frías,FO,9.031112,-79.501913,9/6/2017
C.E.B.G. Samaria Sinaí,Panama,San Miguelito,Belisario Frías,FO,9.053827,-79.494689,2/6/2017
Centro de Orientación Infantil Katiuska,Panama,San Miguelito,Belisario Frías,HFC,9.078707,-79.495917,16/06/2017
Centro de Salud de Torrijos Carter,Panama,San Miguelito,Belisario Frías,HFC,9.080674,-79.491743,30/05/2017
Escuela Carlos A. Mendoza,Panama,San Miguelito,Belisario Frías,PMP,9.047716,-79.499344,30/05/2017
Escuela El Mirador,Panama,San Miguelito,Belisario Frías,FO,9.072678,-79.487745,30/05/2017
Escuela General José de San Martin,Panama,San Miguelito,Belisario Frías,FO,9.065753,-79.501589,1/6/2017
Escuela Josefina Tapia,Panama,San Miguelito,Belisario Frías,PMP,9.047705,-79.499333,7/7/2017
Escuela República de Polonia,Panama,San Miguelito,Belisario Frías,FO,9.073178,-79.482928,26/04/2017
Escuela Republica de Corea,Panama,San Miguelito,Belisario Frías,FO,9.049339,-79.4927,12/6/2017
Escuela Republica de Francia,Panama,San Miguelito,Belisario Frías,FO,9.062837,-79.495038,30/05/2017
Escuela República de Yugoslavia,Panama,San Miguelito,Belisario Frías,FO,9.047683,-79.50001,29/05/2017
Escuela Rogelio Sinán,Panama,San Miguelito,Belisario Frías,HFC,9.079664,-79.487745,10/7/2017
Escuela Santa Marta,Panama,San Miguelito,Belisario Frías,FO,9.079631,-79.495214,29/05/2017
Escuela Torrijos Carter,Panama,San Miguelito,Belisario Frías,FO,9.069516,-79.493281,13/06/2017
IPT San Miguelito,Panama,San Miguelito,Belisario Frías,HFC,9.079127,-79.492754,1/6/2017
Escuela Padre Xavier Villanueva,Panama,San Miguelito,Rufina Alfaro,PMP,9.059882,-79.457901,26/04/2017
Escuela Primaria Don Bosco en Belisario Porras,Panama,San Miguelito,Belisario Porras,FO,9.056086,-79.503122,31/05/2017
Escuela Estado de Israel,Panama,San Miguelito,José Domingo Espinar,FO,9.038332,-79.492842,1/6/2017
Escuela Estado de Israel 2,Panama,San Miguelito,José Domingo Espinar,FO,9.038332,-79.492842,1/6/2017
Escuela Jose D. Espinar,Panama,San Miguelito,José Domingo Espinar,PMP,9.045103,-79.473684,8/6/2017
IPT Angel Rubio,Panama,San Miguelito,José Domingo Espinar,PMP,9.052655,-79.463672,12/6/2017
Junta Comunal Jose D. Espinar,Panama,San Miguelito,José Domingo Espinar,FO,9.03419,-79.490909,29/05/2017
Policlinica Dra. Susana Jones Cano (Hospital San Judas Tadeo),Panama,San Miguelito,José Domingo Espinar,PMP,9.037665,-79.483281,24/04/2017
Escuela Republica de Colombia,Panama,San Miguelito,Mateo Iturralde,FO,9.03647,-79.499168,14/06/2017
Escuela Severino Hernandez (IPT),Panama,San Miguelito,Mateo Iturralde,PMP,9.029818,-79.497279,7/7/2017
Instituto Dr. Alfredo CAnton,Panama,San Miguelito,Mateo Iturralde,FO,9.034943,-79.49492,29/05/2017
Instituto Dr. Alfredo CAnton 2,Panama,San Miguelito,Mateo Iturralde,FO,9.034552,-79.495032,29/05/2017
Policlínica Manuel Maria Valdéz,Panama,San Miguelito,Mateo Iturralde,FO,9.008434,-79.487789,29/05/2017
Biblioteca Pública Omar Torrijos Herrera,Panama,San Miguelito,Omar Torrijos,FO,9.041607,-79.49271,30/05/2017
Escuela Domingo Faustino Sarmiento,Panama,San Miguelito,Omar Torrijos,HFC,9.06431,-79.508575,10/7/2017
Escuela Juan José. Amado,Panama,San Miguelito,Omar Torrijos,FO,9.06517,-79.52216,2/6/2017
Escuela Los Andes # 2 No.1,Panama,San Miguelito,Omar Torrijos,PMP,9.049867,-79.511956,14/06/2017
Escuela Maria del Rosario Salazar,Panama,San Miguelito,Omar Torrijos,PMP,9.062284,-79.506235,2/6/2017
Escuela Santa Librada,Panama,San Miguelito,Omar Torrijos,PMP,9.072345,-79.502906,31/05/2017
Escuela Santiago de la Guardia,Panama,San Miguelito,Omar Torrijos,FO,9.076665,-79.515202,28/04/2017
IPT Nicolas del Rosario Los Andes,Panama,San Miguelito,Omar Torrijos,PMP,9.047033,-79.511117,29/05/2017
Junta Comunal Omar Torrijos,Panama,San Miguelito,Omar Torrijos,FO,9.076665,-79.515202,30/05/2017
Parque Santa Librada tercera etapa,Panama,San Miguelito,Omar Torrijos,FO,9.077398,-79.512476,30/05/2017
Policlínica Generoso Guardia,Panama,San Miguelito,Omar Torrijos,PMP,9.072163,-79.505318,30/05/2017
Primer Ciclo Santa Librada,Panama,San Miguelito,Omar Torrijos,PMP,9.072841,-79.502243,31/05/2017
Escuela Cerro Viento Rural,Panama,San Miguelito,Rufina Alfaro,FO,9.076075,-79.460148,27/04/2017
Escuela Pedro J. Ameglio,Panama,San Miguelito,Rufina Alfaro,FO,9.059461,-79.445996,24/05/2017
Escuela República de Alemania,Panama,San Miguelito,Victoriano Lorenzo,PMP,9.026127,-79.503649,26/04/2017
Escuela San Antonio,Panama,San Miguelito,Victoriano Lorenzo,FO,9.031065,-79.505243,27/04/2017
Instituto Rubiano,Panama,San Miguelito,Victoriano Lorenzo,PMP,9.036036,-79.504791,2/6/2017
Escuela Juana Maria Menchado de Jiménez,Panama,Taboga,Otoque Oriente,Satelital,8.60149,-79.594451,7/8/2017
Escuela Benjamín Quintero,Panama,Taboga,Taboga,PTP,8.796866,-79.555682,25/07/2017
Alcaldía Aguadulce,Cocle,Aguadulce,San Juan Bautista de Aguadulce,FO,8.243493,-80.539531,25/07/2017
Biblioteca Abelardo Herrera,Cocle,Aguadulce,Barrios Unidos,FO,8.241773,-80.542918,25/07/2017
Centro de Bellas Artes Folkloricas,Cocle,Aguadulce,San Juan Bautista de Aguadulce,FO,8.242299,-80.544457,25/07/2017
Centro de Salud Aguadulce,Cocle,Aguadulce,San Juan Bautista de Aguadulce,FO,8.23749,-80.54932,26/07/2017
Cuartel de Bomberos Aguadulce,Cocle,Aguadulce,San Juan Bautista de Aguadulce,FO,8.24671,-80.541468,26/07/2017
Hospital Marcos Robles,Cocle,Aguadulce,San Juan Bautista de Aguadulce,FO,8.249113,-80.544433,26/07/2017
Hospital Regional de Aguadulce,Cocle,Aguadulce,San Juan Bautista de Aguadulce,FO,8.245046,-80.558061,26/07/2017
IPT Industrial de Aguadulce,Cocle,Aguadulce,San Juan Bautista de Aguadulce,FO,8.244642,-80.530598,24/07/2017
Parque 19 de Octubre,Cocle,Aguadulce,San Juan Bautista de Aguadulce,FO,8.241439,-80.539844,26/07/2017
Parque de los Marineros,Cocle,Aguadulce,San Juan Bautista de Aguadulce,FO,8.241389,-80.536511,26/07/2017
Parque del Carmen,Cocle,Aguadulce,Pocri,FO,8.2588,-80.549387,25/07/2017
Policlinica CSS Manuel Rojas,Cocle,Aguadulce,San Juan Bautista de Aguadulce,FO,8.246402,-80.542134,26/07/2017
Rodolfo F. Chiari,Cocle,Aguadulce,San Juan Bautista de Aguadulce,FO,8.241791,-80.549287,26/07/2017
Abelardo Herrera,Cocle,Aguadulce,Barrios Unidos,FO,8.236906,-80.540444,26/07/2017
C.E.B.G. Loma de los González,Cocle,Aguadulce,El Cristo,Satelital,8.27619,-80.621418,26/09/2017
Escuela Hato Rincones,Cocle,Aguadulce,El Cristo,Satelital,8.084787,-80.615439,23/10/2017
Escuela El Naranjal,Cocle,Aguadulce,El Cristo,Satelital,8.271751,-80.621915,23/10/2017
C.E.B.G. ERIC DEL VALLE,Cocle,Aguadulce,El Roble,FO,8.199523,-80.702839,25/07/2017
Escuela El Roble,Cocle,Aguadulce,El Roble,HFC,8.162901,-80.656628,31/07/2017
Escuela Francisca C. de Sierra,Cocle,Aguadulce,El Roble,PTP,8.170323,-80.636773,4/9/2017
Escuela Jaguito,Cocle,Aguadulce,El Roble,FO,8.170758,-80.668932,31/07/2017
Parque frente a Iglesia del Jaguito,Cocle,Aguadulce,El Roble,FO,8.169087,-80.667521,25/07/2017
CEBG El Perú,Cocle,Aguadulce,Pocri,FO,8.253698,-80.555831,24/07/2017
CEBG Juan Demóstenes Arosemena,Cocle,Aguadulce,Pocri,FO,8.258899,-80.549343,25/07/2017
CEBG Pocri,Cocle,Aguadulce,Pocri,FO,8.253058,-80.545906,24/07/2017
Escuela San Martin de Porres,Cocle,Aguadulce,Pocri,FO,8.258798,-80.539064,24/07/2017
Biblioteca Pública Galileo Patiño,Cocle,Anton,Anton,FO,8.39442,-80.262667,28/08/2017
Centro de Educacion y Salud Preventiva de Anton,Cocle,Anton,Anton,FO,8.400636,-80.269677,28/08/2017
Centro de Rehabilitacion IPHE,Cocle,Anton,Anton,FO,8.39903,-80.268127,28/08/2017
Escuela Secundaria Salomón Ponce(Gimnasio Popular),Cocle,Anton,Anton,FO,8.393105,-80.266724,31/07/2017
Mercado Público Anton,Cocle,Anton,Anton,FO,8.391972,-80.263528,4/8/2017
Parque 15 de Enero,Cocle,Anton,Anton,FO,8.39175,-80.262389,3/8/2017
Escuela Altos de la Mesa,Cocle,Anton,El Valle,FO,8.356376,-80.137205,23/11/2017
Escuela El Valle,Cocle,Anton,El Valle,FO,8.601387,-80.120133,31/08/2017
I.P.T. El Valle,Cocle,Anton,El Valle,HFC,8.612871,-80.118213,31/08/2017
C.E.B.G. La Mata,Cocle,Anton,El Valle,Satelital,8.474618,-80.095209,23/10/2017
Escuela El Platanal,Cocle,Anton,Río Hato,FO,8.430706,-80.065192,30/10/2017
Escuela Farallón,Cocle,Anton,Río Hato,FO,8.35656,-80.137201,28/08/2017
Escuela Las Guías,Cocle,Anton,Río Hato,FO,8.539329,-82.419578,31/08/2017
Escuela Las Guías Oriente,Cocle,Anton,Río Hato,FO,8.428337,-80.070796,28/08/2017
Escuela LOS POLLOS,Cocle,Anton,Río Hato,FO,8.407672,-80.158034,16/10/2017
Escuela Santa Clara,Cocle,Anton,Río Hato,FO,8.374986,-80.109182,28/08/2017
I.P.T. RÍO HATO,Cocle,Anton,Río Hato,FO,8.513316,-80.352757,28/08/2017
C. DE S. DE SANTA RITA,Cocle,Anton,Santa Rita,Satelital,8.495987,-80.190743,23/10/2017
Escuela Santa Rita,Cocle,Anton,Santa Rita,FO,8.486258,-80.203732,31/08/2017
Escuela Santa Rita Arriba,Cocle,Anton,Santa Rita,FO,8.495201,-80.191865,31/08/2017
C.E.B.G. OMAR TORRIJOS HERRERA,Cocle,La Pintada,El Harino,FO,8.6546,-80.561001,26/01/2018
Escuela Barrigón,Cocle,La Pintada,El Harino,FO,8.644805,-80.58886,29/08/2017
Escuela Juan José Quirós,Cocle,La Pintada,El Harino,FO,8.616471,-80.560249,29/08/2017
Escuela Villalobos,Cocle,La Pintada,El Harino,FO,8.403992,-80.517277,30/08/2017
I.P.T. El Copé,Cocle,La Pintada,El Harino,FO,8.621464,-80.581319,29/08/2017
Escuela Membrillar,Cocle,La Pintada,La Pintada,FO,8.567861,-80.409971,18/10/2017
I.P.T. La Pintada,Cocle,La Pintada,La Pintada,PTP,8.570769,-80.451263,17/10/2017
Municipio La Pintada,Cocle,La Pintada,La Pintada,FO,8.592924,-80.446081,28/08/2017
Parque 25 de diciembre (la Cruz),Cocle,La Pintada,La Pintada,FO,8.596011,-80.447765,28/08/2017
Escuela Calabazo Nº 1,Cocle,La Pintada,Las Lomas,FO,8.620627,-80.569016,30/08/2017
C.E.B.G. AGUA FRÍA,Cocle,La Pintada,Llano Grande,Satelital,8.5778,-80.438067,23/10/2017
C.E.B.G. San Juanito,Cocle,La Pintada,Llano Grande,Satelital,8.665521,-80.459917,19/12/2017
Escuela La Honda,Cocle,La Pintada,Llano Grande,Satelital,8.638416,-80.42636,27/11/2017
C.E.B.G Calabazo Nº 2,Cocle,La Pintada,Piedras Gordas,FO,8.639762,-80.510826,29/08/2017
C.E.B.G. MACHUCA,Cocle,La Pintada,Piedras Gordas,FO,8.62304,-80.548902,17/10/2017
Escuela ANGEL GUARDIA,Cocle,La Pintada,Piedras Gordas,FO,8.639762,-80.510829,29/08/2017
Escuela Jujucal,Cocle,La Pintada,Piedras Gordas,FO,8.633138,-80.535526,29/08/2017
Escuela Las Delicias,Cocle,La Pintada,Piedras Gordas,Satelital,8.6447,-80.492707,23/10/2017
Escuela Ciénaga Larga,Cocle,Nata,Capellanía,FO,8.277375,-80.621728,31/07/2017
Escuela El Espavé,Cocle,Nata,Capellanía,FO,8.286219,-80.593554,31/07/2017
Escuela Roberto F. Chiari,Cocle,Nata,Capellanía,HFC,8.300416,-80.551452,4/8/2017
Escuela Santa Lucía,Cocle,Nata,El Caño,FO,8.412306,-80.531915,4/8/2017
Escuela Sebastián Sucre,Cocle,Nata,El Caño,FO,8.406472,-80.519137,4/8/2017
Colegio Secundario Mariano Prado,Cocle,Nata,Nata,HFC,8.34616,-80.52176,3/8/2017
Escuela de España,Cocle,Nata,Nata,FO,8.33564,-80.5199,28/07/2017
Municipio Nata,Cocle,Nata,Nata,FO,8.33279,-80.515541,28/07/2017
C.E.B.G Santos Jorge,Cocle,Penonome,Cañaveral,HFC,8.518139,-80.429693,28/08/2017
Escuela Juan Bautista Rosas,Cocle,Penonome,Cañaveral,FO,8.542511,-80.435379,28/08/2017
Escuela Los Uveros,Cocle,Penonome,Cañaveral,FO,8.53325,-80.395431,28/08/2017
Escuela Maria T. de Herrera,Cocle,Penonome,Cañaveral,FO,8.493848,-80.381697,24/11/2017
C.E.B.G Asunción Chiru V.,Cocle,Penonome,Chiguirí Arriba,Satelital,8.725057,-80.221955,4/12/2017
C.E.B.G San Miguel Arriba,Cocle,Penonome,Chiguirí Arriba,Satelital,8.691989,-80.14662,23/10/2017
C.E.B.G. VAQUILLA,Cocle,Penonome,Chiguirí Arriba,Satelital,8.684866,-80.195879,23/10/2017
Colegio Candelario Ovalle,Cocle,Penonome,Chiguirí Arriba,Satelital,8.744432,-80.185667,23/10/2017
Escuela Chiguirí Centro,Cocle,Penonome,Chiguirí Arriba,Satelital,8.695348,-80.225071,19/01/2018
Escuela Oajaca,Cocle,Penonome,Chiguirí Arriba,FO,8.628578,-80.228896,20/12/2017
Escuela Pozo Azul,Cocle,Penonome,Chiguirí Arriba,Satelital,8.64527,-80.206509,23/10/2017
Centro Regional Universitario El Coco,Cocle,Penonome,El Coco,FO,8.487675,-80.328002,3/8/2017
Escuela Aguas Blancas,Cocle,Penonome,El Coco,PTP,8.505083,-80.312749,29/08/2017
Escuela Ana Pérez de Isaza,Cocle,Penonome,El Coco,Satelital,8.398913,-80.352201,19/12/2017
Escuela Jacinta Arosemena,Cocle,Penonome,El Coco,FO,8.465639,-80.321638,3/8/2017
Escuela Llano Marín,Cocle,Penonome,El Coco,FO,8.49707,-80.33402,2/8/2017
INADEH El Coco,Cocle,Penonome,El Coco,FO,8.488648,-80.328818,3/8/2017
C.E.B.G. Simón Martínez,Cocle,Penonome,Pajonal,FO,8.618024,-80.216597,29/08/2017
C.E.B.G. JOSÉ DE LOS REYES VÁSQUEZ,Cocle,Penonome,Pajonal,Satelital,8.626374,-80.235945,20/10/2017
C.E.B.G. Membrillo,Cocle,Penonome,Pajonal,Satelital,8.583175,-80.220598,20/10/2017
Escuela Celestino del Rosario,Cocle,Penonome,Pajonal,FO,8.481735,-80.330958,17/10/2017
Escuela Churuquita Grande,Cocle,Penonome,Pajonal,FO,8.595432,-80.275839,29/08/2017
Escuela El Barrero,Cocle,Penonome,Pajonal,FO,8.559629,-80.308112,2/8/2017
Escuela Francisca Figueroa,Cocle,Penonome,Pajonal,FO,8.59909,-80.271673,1/9/2017
Escuela Guabal,Cocle,Penonome,Pajonal,FO,8.62786,-80.254971,29/08/2017
Escuela La Negrita,Cocle,Penonome,Pajonal,FO,8.573783,-80.299609,2/8/2017
Escuela Modesto Morán H,Cocle,Penonome,Pajonal,FO,8.573255,-80.276918,1/8/2017
Escuela Pajonal Arriba,Cocle,Penonome,Pajonal,FO,8.612273,-80.243824,29/08/2017
Escuela Rincón de Las Palmas,Cocle,Penonome,Pajonal,FO,8.554185,-80.256654,1/8/2017
Escuela Santa Cruz,Cocle,Penonome,Pajonal,FO,8.532752,-80.411424,4/9/2017
Escuela Victor Pérez Flores,Cocle,Penonome,Pajonal,FO,8.624527,-80.237471,29/08/2017
Instituto Carmen Conte Lombardo,Cocle,Penonome,Pajonal,FO,8.576583,-80.274104,1/8/2017
Biblioteca Pública Fernando Guardia,Cocle,Penonome,Penonome,FO,8.511089,-80.353183,28/07/2017
Centro de Salud Penonome,Cocle,Penonome,Penonome,FO,8.512744,-80.355334,31/08/2017
Clelia F. de Martínez,Cocle,Penonome,Penonome,FO,8.513196,-80.352802,27/07/2017
Direccion Investigacion Judicial,Cocle,Penonome,Penonome,FO,8.514167,-80.349878,31/08/2017
Escuela Primaria Rubén D. Carles,Cocle,Penonome,Penonome,FO,8.528111,-80.346289,27/07/2017
Escuela Simeón Conte,Cocle,Penonome,Penonome,FO,8.249537,-80.544235,27/07/2017
Gobernación Penonome,Cocle,Penonome,Penonome,FO,8.521321,-80.359842,28/08/2017
Hospital Aquilino Tejeira,Cocle,Penonome,Penonome,FO,8.513882,-80.351218,27/07/2017
I.P.T. Leonida P. de Grimaldo,Cocle,Penonome,Penonome,FO,8.515675,-80.343731,27/07/2017
Mercado Público Penonome,Cocle,Penonome,Penonome,FO,8.520345,-80.35812,27/07/2017
MINSA Penonome,Cocle,Penonome,Penonome,FO,8.507849,-80.36195,28/08/2017
Parque Margarita Rosas,Cocle,Penonome,Penonome,FO,8.515183,-80.352623,3/8/2017
Primer ciclo Federíco Zuñiga - San AntOnio,Cocle,Penonome,Penonome,FO,8,-80,28/08/2017
Terminal de Transporte UTRAPEP,Cocle,Penonome,Penonome,FO,8.51172,-80.348624,27/07/2017
Universidad Tecnologica de Panama,Cocle,Penonome,Penonome,FO,8.497228,-80.330821,16/10/2017
Escuela Ciruelito,Cocle,Penonome,Río Grande,FO,8.413013,-80.521194,29/08/2017
Escuela Garicín,Cocle,Penonome,Río Grande,FO,8.438139,-80.454415,19/10/2017
C.E.B.G. Chiguirí Abajo,Cocle,Penonome,Toabré,Satelital,8.705546,-80.258273,20/10/2017
C.E.B.G. MERCEDES BUSTAMANTE,Cocle,Penonome,Toabré,FO,8.64895,-80.320712,30/08/2017
Escuela Chumical,Cocle,Penonome,Toabré,Satelital,8.528657,-80.256125,12/1/2018
Escuela Miraflores,Cocle,Penonome,Toabré,FO,8.643161,-80.28875,30/08/2017
Escuela Sabana Larga,Cocle,Penonome,Toabré,FO,8.685024,-80.279321,30/08/2017
Escuela Sagreja,Cocle,Penonome,Toabré,FO,8.657027,-80.336638,21/11/2017
Escuela Tambo,Cocle,Penonome,Toabré,FO,8.663873,-80.295103,30/08/2017
Escuela Las Minas,Cocle,Penonome,Tulú,FO,8.643138,-80.395804,21/11/2017
Escuela Perecabé,Cocle,Penonome,Tulú,FO,8.65786,-80.384138,30/08/2017
Escuela Santa Cruz de Perecabecito,Cocle,Penonome,Tulú,FO,8.653971,-80.368582,27/11/2017
ESC. COSTA DE ORO,Colon,Chagres,Salud,Satelital,9.199571,-80.150731,20/10/2017
Esc. Salud,Colon,Chagres,Salud,FO,9.228777,-80.090332,12/12/2017
ESC. MIGUEL DE LA BORDA,Colon,Donoso,Miguel de la Borda,Satelital,9.152987,-80.30451,19/10/2017
Alcaldía Chitre,Herrera,Chitre,Chitre,FO,7.961083,-80.428667,19/07/2017
Area frente al Ministerio de Desarrollo Social Chitre,Herrera,Chitre,Chitre,FO,7.961373,-80.422753,10/7/2017
Biblioteca Cristobal Rodriguez,Herrera,Chitre,Chitre,FO,7.965,-80.430028,11/7/2017
Centro Regional Universitario Chitre,Herrera,Chitre,Chitre,FO,7.956143,-80.418819,21/11/2017
Colegio José D. Crespo,Herrera,Chitre,Chitre,FO,7.960659,-80.421709,10/7/2017
Corregiduria de Policia de Llano Bonito,Herrera,Chitre,Chitre,FO,7.975534,-80.423999,11/7/2017
Corregiduria de Policia San Juan Bautista,Herrera,Chitre,Chitre,FO,7.968861,-80.425828,11/7/2017
Cuartel de Bomberos Chitre,Herrera,Chitre,Chitre,PMP,7.96399,-80.432463,3/7/2017
ESC. CRISTINA C. DE SANCHEZ,Herrera,Chitre,Chitre,HFC,7.962704,-80.435355,11/7/2017
IPHE Chitre,Herrera,Chitre,Chitre,FO,7.963472,-80.421722,11/7/2017
MICI,Herrera,Chitre,Chitre,PMP,7.956767,-80.424544,3/7/2017
Museo de Herrera,Herrera,Chitre,Chitre,FO,7.9638,-80.429558,12/7/2017
Parque Tomas Herrera,Herrera,Chitre,Chitre,Radio,7.966239,-80.42759,4/7/2017
Primaria-Juan T. del Busto,Herrera,Chitre,Chitre,FO,7.962218,-80.437282,11/7/2017
Terminal de Buses Chitre,Herrera,Chitre,Chitre,FO,7.953829,-80.430173,19/07/2017
C.E.B.G. Presidente John F. Kennedy,Herrera,Chitre,La Arena,HFC,7.969441,-80.46336,7/7/2017
Parque frente a la Iglesia,Herrera,Chitre,La Arena,FO,7.971342,-80.463543,3/7/2017
C. DE S. LLANO BONITO,Herrera,Chitre,Llano Bonito,FO,7.971874,-80.428773,12/7/2017
Escuela Eneida M. de Castillero,Herrera,Chitre,Llano Bonito,Radio,7.975668,-80.41839,3/7/2017
Escuela Evelio D. Carrizo,Herrera,Chitre,Llano Bonito,FO,7.971752,-80.429138,12/7/2017
C. DE S. MONAGRILLO,Herrera,Chitre,San Miguel de Monagrillo,PMP,7.98313,-80.432799,3/7/2017
Colegio Padre Segundo Familiar Cano,Herrera,Chitre,San Miguel de Monagrillo,FO,7.976025,-80.431603,19/07/2017
Escuela Boca de Parita,Herrera,Chitre,San Miguel de Monagrillo,HFC,8.012168,-80.4488,7/7/2017
S. C. DE S. BOCA PARITA,Herrera,Chitre,San Miguel de Monagrillo,FO,8.010524,-80.45099,5/7/2017
Primaria-Hipólito Perez Tello,Herrera,Chitre,San Juan Bautista,FO,7.963583,-80.424472,3/7/2017
Primaria-Tomás Herrera,Herrera,Chitre,San Juan Bautista,FO,7.965056,-80.432217,11/7/2017
C.E.B.G. LOS POZOS,Herrera,Los Pozos,Los Pozos,FO,8.519654,-80.357353,4/9/2017
C.E.B.G. LUCIRIA DE PIMENTEL,Herrera,Los Pozos,Los Pozos,FO,7.787484,-80.64634,4/9/2017
Escuela El Piro,Herrera,Los Pozos,Los Pozos,FO,7.76453,-80.631082,2/8/2017
Escuela Rafael Quintero Villarreal,Herrera,Ocu,Llano Grande,FO,7.94233,-80.776712,17/07/2017
Biblioteca Jose Nuñez Roca,Herrera,Ocu,San Sebastián de Ocu,FO,7.948051,-80.774077,17/07/2017
Escuela Jose D. Carrizo No.1,Herrera,Ocu,San Sebastián de Ocu,FO,7.945862,-80.777654,17/07/2017
Escuela Jose D. Carrizo No.2,Herrera,Ocu,San Sebastián de Ocu,FO,7.947978,-80.779036,17/07/2017
Hospital Sergio Nuñez,Herrera,Ocu,San Sebastián de Ocu,HFC,7.94233,-80.776712,17/07/2017
Municipio Ocu,Herrera,Ocu,San Sebastián de Ocu,HFC,7.945498,-80.778398,17/07/2017
Terminal de Transporte de Ocu,Herrera,Ocu,San Sebastián de Ocu,FO,7.943709,-80.776484,17/07/2017
C. DE S. PARITA,Herrera,Parita,Parita,FO,7.999322,-80.516343,10/7/2017
Escuela Puerto Limón,Herrera,Parita,Parita,FO,7.995138,-80.513055,21/07/2017
Municipio Parita,Herrera,Parita,Parita,FO,7.995496,-80.517938,10/7/2017
Biblioteca Pública José Daniel Crespo,Herrera,Pese,Pese,FO,7.908554,-80.616146,19/07/2017
Colegio Secundario de Pese (Jose O. Huertas),Herrera,Pese,Pese,FO,7.909639,-80.613189,19/07/2017
Escuela Ildaura Vieto,Herrera,Pese,Pese,FO,7.904972,-80.615605,19/07/2017
Junta Comunal Pese,Herrera,Pese,Pese,FO,7.909306,-80.613522,19/07/2017
Escuela Melania Pascal de López,Herrera,Santa Maria,Chupampa,FO,8.076196,-80.776915,17/07/2017
Municipio Santa Maria,Herrera,Santa Maria,Santa Maria,FO,7.770861,-80.271772,17/07/2017
Area frente al INADEH Guarare,Los Santos,Guarare,Guarare,FO,7.821809,-80.287579,6/7/2017
Esc. Francisco Ignacio Castillero,Los Santos,Guarare,Guarare,FO,7.82394,-80.283634,6/7/2017
Esc. Primaria Juana Vernaza,Los Santos,Guarare,Guarare,FO,7.819464,-80.280459,6/7/2017
Museo Manuel F. Zárate,Los Santos,Guarare,Guarare,FO,7.825676,-80.277916,6/7/2017
Palacio Municipal de Guarare,Los Santos,Guarare,Guarare,FO,7.823622,-80.282367,6/7/2017
Parque Amalia Ortega (El Jobo),Los Santos,Guarare,Guarare,FO,7.816178,-80.281116,6/7/2017
Parque Viviana Pérez,Los Santos,Guarare,Guarare,FO,7.821599,-80.281328,6/7/2017
Policlínica de Guarare,Los Santos,Guarare,Guarare,FO,7.825676,-80.277916,6/7/2017
Avenida Central Las Tablas,Los Santos,Las Tablas,Las Tablas,FO,7.768383,-80.277194,21/07/2017
Centro de Salud Las Tablas,Los Santos,Las Tablas,Las Tablas,FO,7.769594,-80.277083,13/07/2017
Colegio Manuel Maria Tejada Roca,Los Santos,Las Tablas,Las Tablas,FO,7.768867,-80.273183,13/07/2017
Esc. Santa Isabel,Los Santos,Las Tablas,Las Tablas,HFC,7.755278,-80.262778,13/07/2017
Hospital Joaquin Pablo Franco Sayas,Los Santos,Las Tablas,Las Tablas,FO,7.787347,-80.272789,12/7/2017
Junta Comunal de las Palmitas,Los Santos,Las Tablas,Las Tablas,HFC,7.7675,-80.286389,12/7/2017
Museo Porras,Los Santos,Las Tablas,Las Tablas,FO,7.766472,-80.277723,13/07/2017
Parque Porras Las Tablas,Los Santos,Las Tablas,Las Tablas,FO,7.766472,-80.277723,6/9/2017
Primaria Claudio Vasquez,Los Santos,Las Tablas,Las Tablas,FO,7.77168,-80.269498,13/07/2017
Primaria-Presidente Porras,Los Santos,Las Tablas,Las Tablas,FO,7.764728,-80.276112,13/07/2017
Universidad Nacional de Panama,Los Santos,Las Tablas,Las Tablas,HFC,7.791719,-80.273964,12/7/2017
C. DE S. SANTO DOMINGO,Los Santos,Las Tablas,Santo Domingo,HFC,7.758687,-80.23759,21/07/2017
Esc. Melquiades Vásquez,Los Santos,Las Tablas,Santo Domingo,HFC,7.758687,-80.23759,21/07/2017
C.E.B.G. JAIME ALBA,Los Santos,Las Tablas,Vallerriquito,Satelital,7.63117,-80.344377,28/09/2017
Parque de Vallerriquito,Los Santos,Las Tablas,Vallerriquito,Satelital,7.622132,-80.317546,19/10/2017
Biblioteca Hector Conte,Los Santos,Los Santos,La Villa de Los Santos,FO,7.933778,-80.417639,5/7/2017
Cuartel de Bomberos La Villa De Los Santos,Los Santos,Los Santos,La Villa de Los Santos,FO,7.931139,-80.411667,4/7/2017
Escuela de Folklore Dora Perez de Zarate,Los Santos,Los Santos,La Villa de Los Santos,FO,7.937109,-80.41418,5/7/2017
Escuela Nicanor Villalaz,Los Santos,Los Santos,La Villa de Los Santos,FO,7.928944,-80.414556,4/7/2017
Hospital San Juan De Dios,Los Santos,Los Santos,La Villa de Los Santos,FO,7.937972,-80.412389,4/7/2017
Instituto Coronel Segundo Villarreal,Los Santos,Los Santos,La Villa de Los Santos,FO,7.930111,-80.415278,5/7/2017
Instituto Profesional y tecnico de azuero,Los Santos,Los Santos,La Villa de Los Santos,FO,7.927111,-80.4175,5/7/2017
Parque Rufina Alfaro,Los Santos,Los Santos,La Villa de Los Santos,FO,7.933472,-80.413167,4/7/2017
Terminal de Buses La Villa de los Santos,Los Santos,Los Santos,La Villa de Los Santos,FO,7.937273,-80.418304,4/7/2017
Universidad Tecnologica,Los Santos,Los Santos,La Villa de Los Santos,FO,7.927417,-80.416917,5/7/2017
Escuela Llano Largo,Los Santos,Los Santos,Llano Largo,FO,7.907143,-80.424104,21/07/2017
S. C. DE S. LLANO LARGO,Los Santos,Los Santos,Llano Largo,FO,7.907049,-80.424249,21/07/2017
Col. Rafael A. Moreno,Los Santos,Macaracas,Macaracas,FO,7.732509,-80.551049,20/07/2017
Esc. Rudecinda Rodríguez,Los Santos,Macaracas,Macaracas,HFC,7.737098,-80.549482,20/07/2017
Hospital Luis H. Moreno,Los Santos,Macaracas,Macaracas,FO,7.737304,-80.548631,20/07/2017
Municipio Macaracas,Los Santos,Macaracas,Macaracas,FO,7.732829,-80.551196,20/07/2017
Area frente a Correos Nacionales Pedasi,Los Santos,Pedasi,Pedasi,FO,7.531143,-80.026691,18/07/2017
Area frente al MIDA Pedasi,Los Santos,Pedasi,Pedasi,FO,7.533175,-80.026406,18/07/2017
Area frente al Organo Judicial Pedasi,Los Santos,Pedasi,Pedasi,FO,7.529961,-80.024484,18/07/2017
Biblioteca Publica Petra A.de Moscoso,Los Santos,Pedasi,Pedasi,FO,7.529406,-80.026017,20/07/2017
Cuartel de Bomberos Pedasi,Los Santos,Pedasi,Pedasi,FO,7.533369,-80.025263,18/07/2017
Instituto Plinio Ant. Moscoso,Los Santos,Pedasi,Pedasi,FO,7.532688,-80.027908,18/07/2017
Parque Central Pedasi,Los Santos,Pedasi,Pedasi,FO,7.534045,-80.026408,18/07/2017
Parque de Calle Arriba,Los Santos,Pedasi,Pedasi,FO,7.531553,-80.029243,18/07/2017
Parque de la Iglesia Santa Catalina,Los Santos,Pedasi,Pedasi,FO,7.529504,-80.026107,18/07/2017
Area frente al MIDA Pocri,Los Santos,Pocri,Pocri,FO,7.659684,-80.118583,18/07/2017
Escuela Ernestina Sucre Falcon,Los Santos,Pocri,Pocri,FO,7.661369,-80.121867,18/07/2017
Mercado Artesanal,Los Santos,Pocri,Pocri,FO,7.660706,-80.121498,18/07/2017
Palacio Municipal Pocri,Los Santos,Pocri,Pocri,FO,7.660125,-80.118292,18/07/2017
Parque Central de Pocri,Los Santos,Pocri,Pocri,FO,7.664148,-80.135533,18/07/2017
Esc. Bucaro,Los Santos,Tonosi,Tonosi,Satelital,7.348218,-80.353184,19/10/2017
Esc. Rosa Maria Angulo de Arce,Los Santos,Tonosi,Tonosi,FO,7.407309,-80.438582,1/8/2017
Municipio Tonosi (cabecera),Los Santos,Tonosi,Tonosi,FO,7.407821,-80.44065,1/8/2017
Alcaldía de Arraijan,Panama Oeste,Arraijan,Arraijan,FO,8.953626,-79.654202,25/07/2017
C.E. Las Colinas de Cáceres,Panama Oeste,Arraijan,Arraijan,FO,8.941358,-79.663267,18/10/2017
C.E. Valle del Sol,Panama Oeste,Arraijan,Arraijan,FO,8.927304,-79.63386,22/08/2017
CEBG Cerro Silvestre,Panama Oeste,Arraijan,Arraijan,FO,8.940059,-79.678145,28/08/2017
Centro de Salud Arraijan,Panama Oeste,Arraijan,Arraijan,FO,8.953333,-79.655868,23/08/2017
Cristóbal Adan de Urriola,Panama Oeste,Arraijan,Arraijan,FO,8.945118,-79.654069,25/07/2017
El Tecal,Panama Oeste,Arraijan,Arraijan,FO,8.901106,-79.71195,31/07/2017
Esc. Residencial Vacamonte,Panama Oeste,Arraijan,Arraijan,FO,8.915349,-79.699848,29/08/2017
Escuela Estela Maria Sierra,Panama Oeste,Arraijan,Arraijan,FO,8.941403,-79.639912,25/07/2017
Escuela primaria Guillermo Andreve,Panama Oeste,Arraijan,Arraijan,FO,8.948162,-79.655167,22/08/2017
IPT Fernando de Lesseps - Burunga,Panama Oeste,Arraijan,Arraijan,FO,8.95841,-79.654476,1/8/2017
La Polvareda,Panama Oeste,Arraijan,Arraijan,FO,8.942222,-79.644164,21/07/2017
Loma Bonita,Panama Oeste,Arraijan,Arraijan,FO,8.929484,-79.691729,31/07/2017
Lucas Barcenas - Burunga,Panama Oeste,Arraijan,Arraijan,FO,8.967088,-79.665384,20/07/2017
Roberto F. Chiari,Panama Oeste,Arraijan,Arraijan,FO,8.945118,-79.654069,4/8/2017
C.E. Fuente de Amor,Panama Oeste,Arraijan,Burunga,FO,8.976351,-79.672444,19/07/2017
C.E. Nva. Jerusalén,Panama Oeste,Arraijan,Burunga,FO,8.980359,-79.676915,20/07/2017
C.E.B.G. Reina T. de Araúz,Panama Oeste,Arraijan,Burunga,FO,8.955588,-79.675601,19/07/2017
C.E.B.G.Burunga,Panama Oeste,Arraijan,Burunga,FO,8.967128,-79.674373,19/07/2017
ESC. LLUVIA DE BENDICIONES,Panama Oeste,Arraijan,Burunga,FO,8.948056,-79.675833,28/08/2017
ESC. ONCE DE OCTUBRE,Panama Oeste,Arraijan,Burunga,FO,8.972613,-79.665121,20/07/2017
C. DE S. NVO.CHORRILLO,Panama Oeste,Arraijan,Cerro Silvestre,FO,8.934737,-79.713428,22/08/2017
C.E. La Playita,Panama Oeste,Arraijan,Cerro Silvestre,Radio,8.89415,-79.65552,18/10/2017
C.E. Monte Claro,Panama Oeste,Arraijan,Cerro Silvestre,FO,8.923912,-79.664702,2/8/2017
C.E.B.G. Cerro Silvestre,Panama Oeste,Arraijan,Cerro Silvestre,FO,8.947859,-79.678304,22/08/2017
C.E.B.G. BIQUE,Panama Oeste,Arraijan,Cerro Silvestre,PTP,8.914842,-79.672795,19/07/2017
Escuela Hogar San José de Malambo,Panama Oeste,Arraijan,Cerro Silvestre,FO,8.946519,-79.676916,24/07/2017
C.E. LEONIDAS DELGADO VARGAS,Panama Oeste,Arraijan,Juan Demóstenes Arosemena,FO,8.93767,-79.718078,20/07/2017
C.E.B.G. CERRO TIGRE,Panama Oeste,Arraijan,Juan Demóstenes Arosemena,HFC,8.936752,-79.708041,20/07/2017
Escuela Nuevo Arraijan,Panama Oeste,Arraijan,Juan Demóstenes Arosemena,FO,8.926257,-79.719173,2/8/2017
Junta Comunal Nuevo Arraijan,Panama Oeste,Arraijan,Juan Demóstenes Arosemena,FO,8.925608,-79.719585,1/8/2017
C.E Cosecha Amistad,Panama Oeste,Arraijan,Veracruz,FO,8.889467,-79.640608,27/07/2017
C.E. Veracruz,Panama Oeste,Arraijan,Veracruz,HFC,8.899756,-79.612028,29/08/2017
C.E.B.G. Veracruz,Panama Oeste,Arraijan,Veracruz,FO,8.890548,-79.62635,27/07/2017
Centro de Salud Veracruz,Panama Oeste,Arraijan,Veracruz,HFC,8.887553,-79.633623,31/07/2017
ESC. KOSKUNA,Panama Oeste,Arraijan,Veracruz,FO,8.897453,-79.615029,27/07/2017
Escuela Brisas del Chumical,Panama Oeste,Arraijan,Vista Alegre,FO,8.917232,-79.687013,31/07/2017
Junta Comunal de Vista Alegre,Panama Oeste,Arraijan,Vista Alegre,FO,8.926947,-79.707447,22/08/2017
Avenida Central Capira,Panama Oeste,Capira,Capira,FO,8.758186,-79.876977,23/08/2017
Centro de Salud Jose Pablo Garcia,Panama Oeste,Capira,Capira,FO,8.758478,-79.875227,1/8/2017
Concejo Municipal,Panama Oeste,Capira,Capira,FO,8.759441,-79.876277,26/07/2017
Escuela Federico Boyd,Panama Oeste,Capira,Capira,FO,8.757741,-79.877808,26/07/2017
I.P.T. Capira,Panama Oeste,Capira,Capira,HFC,8.766886,-79.863573,1/8/2017
MIDA Capira,Panama Oeste,Capira,Capira,FO,8.757419,-79.872761,26/07/2017
Parque Gilberto Brid,Panama Oeste,Capira,Capira,FO,8.755511,-79.878162,28/07/2017
Parque San Isidro Capira,Panama Oeste,Capira,Capira,FO,8.759149,-79.876496,28/07/2017
C. DE S. LIDICE (JUAN H. FLORES),Panama Oeste,Capira,Lídice,HFC,8.747206,-79.909833,26/07/2017
C.E. Lídice,Panama Oeste,Capira,Lídice,HFC,8.749967,-79.90738,1/8/2017
C.E. MAJARA,Panama Oeste,Capira,Lídice,Satelital,8.747389,-79.909937,19/10/2017
C.E. Sta. Cruz,Panama Oeste,Chame,Bejuco,HFC,8.631984,-79.881408,4/8/2017
CEBG Berta E. Fernandez,Panama Oeste,Chame,Bejuco,HFC,8.597797,-79.88825,4/8/2017
Centro Cultural de Chame y San Carlos,Panama Oeste,Chame,Bejuco,FO,8.603,-79.887583,21/08/2017
Junta comunal de Bejuco,Panama Oeste,Chame,Bejuco,FO,8.600444,-79.887861,21/08/2017
Alcaldía Chame,Panama Oeste,Chame,Chame,FO,8.578399,-79.884261,3/8/2017
Escuela Harmodio Arias Madrid,Panama Oeste,Chame,Chame,FO,8.582377,-79.885684,3/8/2017
Escuela Rafael Maduro,Panama Oeste,Chame,Chame,FO,8.576871,-79.882555,3/8/2017
Parque de Chame,Panama Oeste,Chame,Chame,FO,8.60279,-79.88767,21/08/2017
CEBG El Trapichito,Panama Oeste,La Chorrera,Barrio Balboa,PMP,8.88341,-79.800021,17/07/2017
Cuartel de Bomberos Barrio Balboa,Panama Oeste,La Chorrera,Barrio Balboa,FO,8.87798,-79.7799,17/07/2017
José Maria Barranco,Panama Oeste,La Chorrera,Barrio Balboa,FO,8.873416,-79.781042,17/07/2017
Tomás Martin Feuillet,Panama Oeste,La Chorrera,Barrio Balboa,FO,8.871408,-79.785663,17/07/2017
Centro de Salud Magalis Ruiz,Panama Oeste,La Chorrera,Barrio Colon,PMP,8.871424,-79.81176,17/07/2017
Colegio Moisés Castillo Ocaña,Panama Oeste,La Chorrera,Barrio Colon,FO,8.892165,-79.78116,17/07/2017
Corregiduria de Policia de Barrio Colon,Panama Oeste,La Chorrera,Barrio Colon,FO,8.88664,-79.78129,23/08/2017
Leopoldo Castillo G,Panama Oeste,La Chorrera,Barrio Colon,FO,8.877,-79.776508,17/07/2017
Municipio Barrio Colon,Panama Oeste,La Chorrera,Barrio Colon,FO,8.875319,-79.790314,18/07/2017
Parque Recreativo Barrio Colon,Panama Oeste,La Chorrera,Barrio Colon,FO,8.882457,-79.775039,18/07/2017
Plaza 10 de Noviembre,Panama Oeste,La Chorrera,Barrio Colon,FO,8.881391,-79.779402,18/07/2017
Primaria-Naciones Unidas,Panama Oeste,La Chorrera,Barrio Colon,FO,8.88789,-79.772842,18/07/2017
Primaria-Victoria D'Spinay,Panama Oeste,La Chorrera,Barrio Colon,FO,8.872579,-79.795921,18/07/2017
C.E. Potrero Grande,Panama Oeste,La Chorrera,El Coco,FO,8.879954,-79.821445,18/07/2017
Primaria-Escuela El Coco,Panama Oeste,La Chorrera,El Coco,FO,8.866721,-79.810238,18/07/2017
C.E. VIRGEN DE GUADALUPE,Panama Oeste,La Chorrera,Guadalupe,FO,8.856925,-79.823405,21/07/2017
C.E.B.G. EL NAZARENO,Panama Oeste,La Chorrera,Guadalupe,HFC,8.842706,-79.838384,19/07/2017
Escuela Primaria Zaira Nuñez,Panama Oeste,La Chorrera,Guadalupe,FO,8.862305,-79.809218,18/07/2017
IPT La Chorrera,Panama Oeste,La Chorrera,Guadalupe,FO,8.864499,-79.800852,23/08/2017
C.E. Victoriano Chacón,Panama Oeste,La Chorrera,Puerto Caimito,FO,8.868415,-79.715215,28/08/2017
Hogar Ciudad del Niño,Panama Oeste,La Chorrera,Puerto Caimito,FO,8.863421,-79.773344,18/10/2017
C. DE S. DE SAN CARLOS,Panama Oeste,San Carlos,San Carlos Borromeo,FO,8.473619,-79.958396,15/11/2017
C.E. Colon,Panama Oeste,San Carlos,San Carlos Borromeo,Satelital,8.49927,-79.971682,19/10/2017
Iglesia de San Carlos,Panama Oeste,San Carlos,San Carlos Borromeo,FO,8.472725,-79.958342,21/08/2017
Municipio San Carlos,Panama Oeste,San Carlos,San Carlos Borromeo,FO,8.473656,-79.960047,21/08/2017
C.E. Rodeo Viejo,Panama Oeste,San Carlos,San José,HFC,8.527328,-79.938682,3/8/2017
Escuela Manuel Amador Guerrero,Panama,Panama,El Chorrillo,PMP,8.950002,-79.542342,19/07/2017
Parroquia Santa Maria del Camino,Panama,Panama,Juan Díaz,PMP,9.046873,-79.434742,13/07/2017
Escuela de la Concepción,Panama,Panama,Juan Díaz,PMP,9.048828,-79.428902,23/05/2017
Plaza Bolívar,Panama,Panama,San Felipe,PMP,8.953378,-79.533315,20/07/2017
Iglesia Cristo Redentor,Panama,San Miguelito,Amelia Denis de Icaza,PMP,9.03825,-79.49892,10/7/2017
Centro de Salud Santa Ana,Panama,Panama,Santa Ana,PMP,8.953411,-79.541453,19/07/2017
Autoridad Marítima de Panama,Panama,Panama,San Felipe,PMP,8.958717,-79.536507,20/07/2017
Mercado El Cruce,Panama,Panama,Calidonia,PMP,8.962896,-79.540663,19/07/2017
Junta Comunal Belisario Frias,Panama,San Miguelito,Belisario Frías,FO,9.073269,-79.489936,18/07/2017
Junta Comunal Belisario Porras,Panama,San Miguelito,Omar Torrijos,FO,9.04927,-79.50034,10/7/2017
Escuela San Vicente,Chiriqui,Baru,Puerto Tomás Armuelles,FO,8.312534,-82.855827,25/07/2017
Escuela El Porvenir,Chiriqui,Bugaba,La Concepción,FO,8.528414,-82.622236,27/07/2017
Escuela Jose Luciano Lara,Chiriqui,Dolega,Los Algarrobos,HFC,8.49827,-82.425512,25/05/2017
Junta Comunal de Tijeras,Chiriqui,Boqueron,Tijeras,HFC,8.470926,-82.556616,1/6/2017
Tribunal Electoral,Chiriqui,David,San José de David,FO,8.430232,-82.425639,4/8/2017
Parque La Santita,Veraguas,Sona,Sona,FO,8.005833,-81.316517,5/9/2017
Policia Nacional de La Raya,Veraguas,Santiago,La Raya de Santa Maria,FO,8.168951,-80.824122,4/10/2017
Escuela Finca 66,Bocas del Toro,Changuinola,Changuinola,FO,9.446004,-82.517252,29/06/2017
Parque de Rambala,Bocas del Toro,Chiriqui Grande,Rambala,FO,8.917832,-82.185001,3/8/2017
Biblioteca La Arena,Herrera,Chitre,La Arena,HFC,7.97099,-80.462313,21/07/2017
Bomberos Isla Colon,Bocas del Toro,Bocas del Toro,Bocas del Toro,FO,9.203042,-82.142238,23/11/2017
Escuela Sergio Perez Delgado,Herrera,Chitre,San Miguel de Monagrillo,FO,7.980422,-80.43497,2/10/2017
Hospital Rural Inabaguinya,Comarca Kuna Yala,Comarca Kuna Yala,Tubualá,Satelital,8.942488,-77.753169,7/8/2017
Centro de Salud San Martin,Panama,Panama,San Martín,Satelital,9.388906,-79.253586,7/8/2017
Escuela Basica Corozal,Comarca Embera,Cemaco,Cirilo Guaynora,Satelital,8.1202,-77.354799,7/8/2017
Palacio Municipal,Los Santos,Los Santos,La Villa de Los Santos,FO,7.937535,-80.413931,5/7/2017
CEBG Nievecita,Bocas del Toro,Changuinola,Las Tablas,FO,9.543161,-82.739405,19/12/2017
Agencia de Caja de Seguro Social,Los Santos,Las Tablas,Las Tablas,FO,7.771134,-80.2765,3/10/2017
CENTRO DE SALUD POCRI,Cocle,Aguadulce,Pocri,FO,8.257696,-80.551332,17/10/2017
Policlínica San Juan,Cocle,Nata,Nata,FO,8.341578,-80.520792,18/10/2017
Centro de Salud Chitre,Herrera,Chitre,Chitre,FO,7.966375,-80.417757,2/10/2017
Museo El Caño,Cocle,Nata,El Caño,FO,8.415958,-80.507897,17/10/2017
CEBG Los Canelos,Herrera,Santa Maria,Los Canelos,FO,8.123967,-80.70013,6/10/2017
Palacio Municipal Pablo Jaén,Los Santos,Pedasi,Pedasi,FO,7.531189,-80.026786,18/07/2017
Corregiduría de Bejuco,Panama Oeste,Chame,Bejuco,FO,8.600444,-79.887861,21/08/2017
CEBG ANA POLO TAPIA,Cocle,Aguadulce,San Juan Bautista de Aguadulce,FO,8.239217,-80.554117,26/07/2017
Junta Comunal de Chitre,Herrera,Chitre,Llano Bonito,PMP,7.962089,-80.428809,2/10/2017
Centro de Bellas Artes,Chiriqui,David,San José de David,PMP,8.420175,-82.432376,29/11/2017
Municipio de Penonome,Cocle,Penonome,Penonome,FO,8.519744,-80.360112,20/10/2017
Mercado del Valle de Anton,Cocle,Anton,El Valle,FO,8.604555,-80.131213,20/11/2017
Centro Educativo Guillermo Endara,Panama Oeste,La Chorrera,Playa Leona,FO,8.8613,-79.7845,16/11/2017
Policía Nacional Rio de Jesus,Veraguas,Rio de Jesus,La Ermita de Rio de Jesus,PTP,7.984337,-81.162657,23/11/2017
Escuela Ollas Abajo,Panama Oeste,Capira,Las Ollas Arriba,FO,8.837369,-79.894854,15/11/2017
CEBG Llano Grande,Cocle,Anton,Cabuya,Satelital,8.639545,-80.440154,23/10/2017
CEBG José Nadal Silva,Cocle,La Pintada,La Pintada,HFC,8.592207,-80.447082,20/10/2017
Escuela Embarcadero de Cascajal,Cocle,La Pintada,Llano Grande,Satelital,8.717434,-80.495024,12/12/2017
Parque de la Iglesia de San Francisco,Panama Oeste,La Chorrera,Barrio Colon,FO,8.882648,-79.779967,16/11/2017
Escuela La Nueva Arenosa,Panama Oeste,Capira,La Trinidad,FO,8.86978,-79.996216,6/12/2017
CEBG Villa Carmen (MINA),Cocle,Penonome,Toabré,Satelital,8.804006,-80.553435,20/10/2017
Flor de Anis,Comarca Ngobe Bugle,Nole Duima,Hato Chamí,Satelital,8.42078,-81.76531,27/11/2017
CEBG Llano Tugrí,Comarca Ngobe Bugle,Muna,Peña Blanca,FO,8.473886,-82.567273,20/12/2017
Municipio de Münä,Comarca Ngobe Bugle,Muna,Chichica,Satelital,8.224507,-81.394459,22/09/2017
Cuerpo de Bomberos Juan Antonio Guizado,Panama,Panama,Santa Ana,PTP,8.952366,-79.540302,13/12/2017
Cuartel de Bomberos Cmdte. Julio Salas,Colon,Colon,Sabanitas,PMP,9.346583,-79.806414,12/12/2017
Escuela Nuevo Paraiso,Colon,Colon,Salamanca,Satelital,9.268906,-79.634604,14/12/2017
Centro de Salud Patricia Duncan,Colon,Colon,Barrio Norte,PMP,9.362822,-79.905277,27/12/2017
CEBG Los Algarrobos Arriba,Chiriqui,Dolega,Los Algarrobos,FO,8.518233,-82.425716,20/12/2017
SENAFRONT Progreso,Chiriqui,Baru,Progreso,FO,8.450238,-82.83633,20/09/2018
CEBG Quebrada Cayuco,Comarca Ngobe Bugle,Kankintu,Samboa,Satelital,8.803352,-82.061283,30/01/2018
Escuela Primaria Gatuncillo,Colon,Colon,Buena Vista,FO,9.251661,-79.646313,3/8/2017
Autoridad Nacional para la Innovación Gubernamental,Panama,Panama,Bella Vista,FO,8.987219,-79.515535,2/8/2018
Instituto Fermín Naudeau,Panama,Panama,Bella Vista,PMP,8.98017,-79.527942,7/6/2018
Centro de Salud Las Margaritas,Panama,Chepo,Las Margaritas,HFC,9.189239,-79.086157,8/6/2018
Primer Ciclo Louis Martin,Panama,San Miguelito,Amelia Denis de Icaza,FO,9.0429,-79.500662,7/6/2018
Escuela Elizabeth Flores de Herrera,Cocle,Anton,Río Hato,FO,8.438494,-80.159859,11/9/2018
Escuela Peñas Blancas,Panama,Panama,Chilibre,Satelital,9.279246,-79.570249,18/09/2018
BOMBEROS DE Ocu,Herrera,Ocu,San Sebastián de Ocu,FO,7.944821,-80.777428,20/09/2018
Centro de Salud de Las Minas,Herrera,Las Minas,Las Minas,FO,7.799564,-80.747481,18/09/2018
Centro de Salud de Santa Maria,Herrera,Santa Maria,Santa Maria,FO,8.115537,-80.661457,17/09/2018
INADEH Chitre,Herrera,Chitre,Chitre,FO,7.956161,-80.424022,17/09/2018
MINSA - CAPSI de Pese,Herrera,Pese,Pese,FO,7.914292,-80.608949,18/09/2018
MINSA - CAPSI Ocu,Herrera,Ocu,San Sebastián de Ocu,FO,7.954816,-80.781619,18/09/2018
HOSPITAL DE CHIRIQUI GRANDE,Bocas del Toro,Chiriqui Grande,Rambala,FO,8.930188,-82.182191,18/09/2018
CAPSI de Dolega,Chiriqui,Dolega,Los Anastacios,FO,8.547539,-82.421272,19/09/2018
Centro de Salud de Boquete,Chiriqui,Boquete,Bajo Boquete,FO,8.776281,-82.431202,18/09/2018
Parque Central del Distrito de Remedios,Chiriqui,Remedios,Remedios,FO,8.225588,-81.830911,17/09/2018
BANCO DE DESARROLLO AGROPECUARIO DE Nata,Cocle,Nata,Nata,FO,8.332801,-80.516264,11/9/2018
Hospital Materno Infantil El Valle,Cocle,Anton,Anton,FO,8.401114,-80.271198,11/9/2018
Centro de Salud El Espino,Panama Oeste,La Chorrera,Santa Rita,FO,8.839783,-79.848394,4/9/2018
Centro de Salud Nuevo Arraijan Artemio Jaén,Panama Oeste,Arraijan,Vista Alegre,FO,8.925692,-79.719484,6/9/2018
Centro de Salud Rosa Tazón,Panama Oeste,Chame,Chame,FO,8.577259,-79.878545,4/9/2018
COLEGIO PEDRO PABLO SANCHEZ #2,Panama Oeste,La Chorrera,Barrio Balboa,FO,8.869783,-79.785245,6/9/2018
Policlínica Dr. Blas Gómez Chetro,Panama Oeste,Arraijan,Arraijan,FO,8.953544,-79.656153,6/9/2018
ULAPS San José,Panama Oeste,San Carlos,San José,FO,8.535257,-79.924524,4/9/2018
ULAPS Vista Alegre ,Panama Oeste,Arraijan,Vista Alegre,FO,8.925157,-79.699285,6/9/2018
